# 
# Header Description:
# 
# Version: v3.0.3.1 Platform: 12 Manufacturer: OnePlus Model: LE2115
# 
# Raw,utcTimeMillis,TimeNanos,LeapSecond,TimeUncertaintyNanos,FullBiasNanos,BiasNanos,BiasUncertaintyNanos,DriftNanosPerSecond,DriftUncertaintyNanosPerSecond,HardwareClockDiscontinuityCount,Svid,TimeOffsetNanos,State,ReceivedSvTimeNanos,ReceivedSvTimeUncertaintyNanos,Cn0DbHz,PseudorangeRateMetersPerSecond,PseudorangeRateUncertaintyMetersPerSecond,AccumulatedDeltaRangeState,AccumulatedDeltaRangeMeters,AccumulatedDeltaRangeUncertaintyMeters,CarrierFrequencyHz,CarrierCycles,CarrierPhase,CarrierPhaseUncertainty,MultipathIndicator,SnrInDb,ConstellationType,AgcDb,BasebandCn0DbHz,FullInterSignalBiasNanos,FullInterSignalBiasUncertaintyNanos,SatelliteInterSignalBiasNanos,SatelliteInterSignalBiasUncertaintyNanos,CodeType,ChipsetElapsedRealtimeNanos
# 
# UncalAccel,utcTimeMillis,elapsedRealtimeNanos,UncalAccelXMps2,UncalAccelYMps2,UncalAccelZMps2,BiasXMps2,BiasYMps2,BiasZMps2
# 
# UncalGyro,utcTimeMillis,elapsedRealtimeNanos,UncalGyroXRadPerSec,UncalGyroYRadPerSec,UncalGyroZRadPerSec,DriftXRadPerSec,DriftYRadPerSec,DriftZRadPerSec
# 
# UncalMag,utcTimeMillis,elapsedRealtimeNanos,UncalMagXMicroT,UncalMagYMicroT,UncalMagZMicroT,BiasXMicroT,BiasYMicroT,BiasZMicroT
# 
# OrientationDeg,utcTimeMillis,elapsedRealtimeNanos,yawDeg,rollDeg,pitchDeg
# 
# Fix,Provider,LatitudeDegrees,LongitudeDegrees,AltitudeMeters,SpeedMps,AccuracyMeters,BearingDegrees,UnixTimeMillis,SpeedAccuracyMps,BearingAccuracyDegrees,elapsedRealtimeNanos
# 
# Nav,Svid,Type,Status,MessageId,Sub-messageId,Data(Bytes)
# 
# Status,UnixTimeMillis,SignalCount,SignalIndex,ConstellationType,Svid,CarrierFrequencyHz,Cn0DbHz,AzimuthDegrees,ElevationDegrees,UsedInFix,HasAlmanacData,HasEphemerisData,BasebandCn0DbHz
# 
UncalAccel,1646543354659,975083059609238,1.021127,8.47727,4.505289,0.0,0.0,0.0
UncalGyro,1646543354660,975083059609238,0.044341598,-0.10972215,0.027830012,0.0035356998,-0.0012886205,0.004326409
UncalMag,1646543354668,975083067419655,103.2364,16.897,-60.7194,117.0393,43.061935,-74.063644
UncalAccel,1646543354670,975083069659863,1.0690111,8.472482,4.4047327,0.0,0.0,0.0
UncalGyro,1646543354670,975083069659863,0.050733183,-0.06498108,0.020373167,0.0035356998,-0.0012886205,0.004326409
UncalMag,1646543354677,975083077419655,103.260796,16.8482,-60.695,117.0393,43.061935,-74.063644
UncalGyro,1646543354679,975083079710488,0.044341598,-0.019174745,0.008655267,0.0035356998,-0.0012886205,0.004326409
UncalAccel,1646543354679,975083079710488,1.0785879,8.5778265,4.2754455,0.0,0.0,0.0
UncalMag,1646543354687,975083087419655,103.272995,16.8238,-60.6462,117.0393,43.061935,-74.063644
UncalAccel,1646543354690,975083089761113,1.0307038,8.611345,4.1940427,0.0,0.0,0.0
UncalGyro,1646543354689,975083089761113,0.026232118,-0.0117179,-0.009454215,0.0035356998,-0.0012886205,0.004326409
UncalMag,1646543354697,975083097419655,103.272995,16.8604,-60.634,117.0393,43.061935,-74.063644
OrientationDeg,1646543354689,975083089761113,288,-13,-62
UncalGyro,1646543354699,975083099811738,0.0049268445,-0.017044218,-0.023302643,0.0035356998,-0.0012886205,0.004326409
UncalAccel,1646543354699,975083099811738,0.93014735,8.630499,4.136582,0.0,0.0,0.0
OrientationDeg,1646543354699,975083099811738,288,-13,-62
UncalMag,1646543354707,975083107419655,103.3218,16.897,-60.6096,117.0393,43.061935,-74.063644
UncalGyro,1646543354709,975083109862363,-0.02277001,-0.024501063,-0.027563697,0.0035356998,-0.0012886205,0.004326409
UncalAccel,1646543354709,975083109862363,0.8439561,8.678383,4.1174283,0.0,0.0,0.0
UncalMag,1646543354717,975083117419655,103.3462,16.897,-60.670597,117.0393,43.061935,-74.063644
OrientationDeg,1646543354709,975083109862363,288,-13,-63
UncalAccel,1646543354719,975083119912988,0.8391677,8.683171,4.1796775,0.0,0.0,0.0
UncalGyro,1646543354719,975083119912988,-0.04301002,-0.030892646,-0.02862896,0.0035356998,-0.0012886205,0.004326409
UncalMag,1646543354727,975083127419655,103.395,16.8604,-60.634,117.0393,43.061935,-74.063644
OrientationDeg,1646543354719,975083119912988,289,-12,-63
UncalGyro,1646543354729,975083129963613,-0.05792371,-0.028762119,-0.027563697,0.0035356998,-0.0012886205,0.004326409
UncalAccel,1646543354730,975083129963613,0.82001406,8.68796,4.2610803,0.0,0.0,0.0
UncalMag,1646543354737,975083137419655,103.3828,16.8238,-60.7072,117.0393,43.061935,-74.063644
OrientationDeg,1646543354730,975083129963613,289,-12,-63
UncalAccel,1646543354741,975083140014238,0.81522566,8.678383,4.3424835,0.0,0.0,0.0
UncalGyro,1646543354741,975083140014238,-0.056858446,-0.025566328,-0.02862896,0.0035356998,-0.0012886205,0.004326409
UncalMag,1646543354747,975083147419655,103.3462,16.8726,-60.7194,117.0393,43.061935,-74.063644
OrientationDeg,1646543354740,975083140014238,289,-12,-63
UncalAccel,1646543354750,975083150064863,0.81522566,8.664018,4.457405,0.0,0.0,0.0
UncalGyro,1646543354750,975083150064863,-0.053662658,-0.022370536,-0.027563697,0.0035356998,-0.0012886205,0.004326409
UncalMag,1646543354757,975083157419655,103.407196,16.8604,-60.7682,117.0393,43.061935,-74.063644
OrientationDeg,1646543354751,975083150064863,290,-12,-63
UncalAccel,1646543354761,975083160115488,0.81522566,8.683171,4.5579615,0.0,0.0,0.0
UncalGyro,1646543354761,975083160115488,-0.04301002,-0.019174745,-0.021172116,0.0035356998,-0.0012886205,0.004326409
UncalMag,1646543354767,975083167419655,103.456,16.909199,-60.7682,117.0393,43.061935,-74.063644
OrientationDeg,1646543354760,975083160115488,290,-11,-62
UncalAccel,1646543354770,975083170166113,0.82001406,8.711902,4.6297874,0.0,0.0,0.0
UncalGyro,1646543354771,975083170166113,-0.035553172,-0.015978955,-0.009454215,0.0035356998,-0.0012886205,0.004326409
UncalMag,1646543354777,975083177419655,103.431595,16.8726,-60.8048,117.0393,43.061935,-74.063644
OrientationDeg,1646543354770,975083170166113,290,-11,-62
UncalAccel,1646543354781,975083180216738,0.8391677,8.735844,4.6776714,0.0,0.0,0.0
UncalGyro,1646543354781,975083180216738,-0.031292118,-0.012783164,-9.321057E-4,0.0035356998,-0.0012886205,0.004326409
UncalMag,1646543354788,975083187419655,103.4926,16.8238,-60.902397,117.0393,43.061935,-74.063644
OrientationDeg,1646543354781,975083180216738,290,-11,-62
UncalAccel,1646543354790,975083190267363,0.8774749,8.707113,4.6776714,0.0,0.0,0.0
UncalGyro,1646543354790,975083190267363,-0.029161593,-0.0021305273,0.0011984216,0.0035356998,-0.0012886205,0.004326409
UncalMag,1646543354797,975083197419655,103.5292,16.8238,-60.902397,117.0393,43.061935,-74.063644
OrientationDeg,1646543354791,975083190267363,290,-11,-62
UncalAccel,1646543354800,975083200317988,0.92535895,8.711902,4.6920366,0.0,0.0,0.0
UncalGyro,1646543354800,975083200317988,-0.0259658,0.013848428,0.0022636852,0.0035356998,-0.0012886205,0.004326409
UncalMag,1646543354807,975083207419655,103.5292,16.8238,-60.8536,117.0393,43.061935,-74.063644
OrientationDeg,1646543354800,975083200317988,290,-11,-62
UncalAccel,1646543354810,975083210368613,0.93014735,8.71669,4.71119,0.0,0.0,0.0
UncalGyro,1646543354810,975083210368613,-0.02277001,0.019174745,0.003328949,0.0035356998,-0.0012886205,0.004326409
UncalMag,1646543354818,975083217419655,103.517,16.8848,-60.878,117.0393,43.061935,-74.063644
OrientationDeg,1646543354810,975083210368613,290,-11,-62
UncalAccel,1646543354820,975083220419238,0.92057055,8.711902,4.7159786,0.0,0.0,0.0
UncalGyro,1646543354820,975083220419238,-0.017443692,0.015978955,1.3315796E-4,0.0035356998,-0.0012886205,0.004326409
UncalMag,1646543354828,975083227419655,103.5292,16.8848,-60.9146,117.0393,43.061935,-74.063644
OrientationDeg,1646543354820,975083220419238,290,-11,-62
UncalGyro,1646543354830,975083230469863,-0.00785632,0.006391582,-0.0030626329,0.0035356998,-0.0012886205,0.004326409
UncalAccel,1646543354830,975083230469863,0.91099375,8.692748,4.735132,0.0,0.0,0.0
OrientationDeg,1646543354831,975083230469863,290,-11,-62
UncalMag,1646543354837,975083237419655,103.456,16.9336,-60.8658,117.0393,43.061935,-74.063644
UncalAccel,1646543354840,975083240520488,0.8678981,8.678383,4.71119,0.0,0.0,0.0
UncalGyro,1646543354841,975083240520488,0.0017310535,-0.0117179,-0.0019973693,0.0035356998,-0.0012886205,0.004326409
UncalMag,1646543354847,975083247419655,103.3828,16.8482,-60.8658,117.0393,43.061935,-74.063644
OrientationDeg,1646543354840,975083240520488,290,-11,-62
UncalAccel,1646543354851,975083250571113,0.8583213,8.664018,4.7159786,0.0,0.0,0.0
UncalGyro,1646543354851,975083250571113,0.01238369,-0.025566328,0.0011984216,0.0035356998,-0.0012886205,0.004326409
UncalMag,1646543354857,975083257419655,103.395,16.7994,-60.816998,117.0393,43.061935,-74.063644
OrientationDeg,1646543354850,975083250571113,290,-11,-62
UncalAccel,1646543354860,975083260621738,0.89184016,8.6496525,4.6776714,0.0,0.0,0.0
UncalGyro,1646543354860,975083260621738,0.018775271,-0.034088437,-0.006258424,0.0035356998,-0.0012886205,0.004326409
OrientationDeg,1646543354860,975083260621738,290,-11,-62
UncalMag,1646543354867,975083267419655,103.334,16.8848,-60.7194,117.0393,43.061935,-74.063644
UncalAccel,1646543354870,975083270672363,0.89662856,8.6496525,4.5962687,0.0,0.0,0.0
UncalGyro,1646543354870,975083270672363,0.025166854,-0.040480018,-0.008388951,0.0035356998,-0.0012886205,0.004326409
OrientationDeg,1646543354870,975083270672363,290,-11,-62
UncalMag,1646543354877,975083277419655,103.272995,16.8482,-60.731598,117.0393,43.061935,-74.063644
UncalAccel,1646543354880,975083280722988,0.8870517,8.654441,4.5340195,0.0,0.0,0.0
UncalGyro,1646543354880,975083280722988,0.027297381,-0.0468716,-0.008388951,0.0035356998,-0.0012886205,0.004326409
UncalMag,1646543354887,975083287419655,103.212,16.8726,-60.816998,117.0393,43.061935,-74.063644
OrientationDeg,1646543354880,975083280722988,290,-11,-62
UncalAccel,1646543354890,975083290773613,0.8678981,8.664018,4.4765587,0.0,0.0,0.0
UncalGyro,1646543354890,975083290773613,0.027297381,-0.0468716,-0.0073236874,0.0035356998,-0.0012886205,0.004326409
UncalMag,1646543354898,975083297419655,103.1998,16.8604,-60.8048,117.0393,43.061935,-74.063644
OrientationDeg,1646543354890,975083290773613,290,-11,-62
UncalAccel,1646543354900,975083300824238,0.8726865,8.654441,4.4286747,0.0,0.0,0.0
UncalGyro,1646543354901,975083300824238,0.020905798,-0.042610545,-0.0041278964,0.0035356998,-0.0012886205,0.004326409
UncalMag,1646543354907,975083307419655,103.151,16.8116,-60.7926,117.0393,43.061935,-74.063644
OrientationDeg,1646543354900,975083300824238,290,-11,-62
UncalAccel,1646543354911,975083310874863,0.8870517,8.6496525,4.395156,0.0,0.0,0.0
UncalGyro,1646543354910,975083310874863,0.0070573715,-0.035153702,-0.006258424,0.0035356998,-0.0012886205,0.004326409
UncalMag,1646543354917,975083317419655,103.0778,16.787199,-60.8048,117.0393,43.061935,-74.063644
OrientationDeg,1646543354911,975083310874863,290,-11,-62
UncalAccel,1646543354920,975083320925488,0.8822633,8.654441,4.4047327,0.0,0.0,0.0
UncalGyro,1646543354920,975083320925488,-0.0046605286,-0.029827382,-0.008388951,0.0035356998,-0.0012886205,0.004326409
UncalMag,1646543354928,975083327419655,103.102196,16.8482,-60.7804,117.0393,43.061935,-74.063644
OrientationDeg,1646543354920,975083320925488,290,-11,-62
UncalAccel,1646543354930,975083330976113,0.8439561,8.6496525,4.419098,0.0,0.0,0.0
UncalGyro,1646543354931,975083330976113,-0.015313165,-0.0234358,-0.0105194785,0.0035356998,-0.0012886205,0.004326409
UncalMag,1646543354938,975083337419655,103.0656,16.909199,-60.8048,117.0393,43.061935,-74.063644
OrientationDeg,1646543354930,975083330976113,290,-11,-62
UncalAccel,1646543354941,975083341026738,0.8343793,8.659229,4.4478283,0.0,0.0,0.0
UncalGyro,1646543354941,975083341026738,-0.020639483,-0.017044218,-0.011584742,0.0035356998,-0.0012886205,0.004326409
OrientationDeg,1646543354941,975083341026738,290,-11,-62
UncalMag,1646543354947,975083347419655,103.0168,16.8726,-60.8658,117.0393,43.061935,-74.063644
UncalAccel,1646543354952,975083351077363,0.81522566,8.664018,4.490924,0.0,0.0,0.0
UncalGyro,1646543354951,975083351077363,-0.024900537,-0.0074568456,-0.009454215,0.0035356998,-0.0012886205,0.004326409
UncalMag,1646543354958,975083357419655,103.09,16.8848,-60.8536,117.0393,43.061935,-74.063644
OrientationDeg,1646543354951,975083351077363,291,-11,-62
UncalAccel,1646543354961,975083361127988,0.8391677,8.6496525,4.5196543,0.0,0.0,0.0
UncalGyro,1646543354961,975083361127988,-0.024900537,-0.0010652636,-0.0041278964,0.0035356998,-0.0012886205,0.004326409
UncalMag,1646543354968,975083367419655,103.09,16.836,-60.8658,117.0393,43.061935,-74.063644
OrientationDeg,1646543354961,975083361127988,291,-11,-62
UncalAccel,1646543354971,975083371178613,0.8822633,8.644864,4.5340195,0.0,0.0,0.0
UncalGyro,1646543354972,975083371178613,-0.021704746,0.0074568456,-0.0041278964,0.0035356998,-0.0012886205,0.004326409
UncalMag,1646543354978,975083377419655,103.0656,16.8848,-60.9268,117.0393,43.061935,-74.063644
OrientationDeg,1646543354971,975083371178613,291,-11,-62
UncalAccel,1646543354981,975083381229238,0.8726865,8.654441,4.5340195,0.0,0.0,0.0
UncalGyro,1646543354981,975083381229238,-0.021704746,0.010652636,-0.0019973693,0.0035356998,-0.0012886205,0.004326409
UncalMag,1646543354988,975083387419655,103.1388,16.909199,-60.939,117.0393,43.061935,-74.063644
OrientationDeg,1646543354981,975083381229238,291,-11,-62
UncalGyro,1646543354991,975083391279863,-0.018508956,0.006391582,1.3315796E-4,0.0035356998,-0.0012886205,0.004326409
UncalAccel,1646543354991,975083391279863,0.8487445,8.659229,4.5579615,0.0,0.0,0.0
UncalMag,1646543354998,975083397419655,103.2486,16.9336,-60.890198,117.0393,43.061935,-74.063644
OrientationDeg,1646543354991,975083391279863,291,-11,-62
UncalGyro,1646543355002,975083401330488,-0.017443692,0.0021305273,0.0011984216,0.0035356998,-0.0012886205,0.004326409
UncalAccel,1646543355001,975083401330488,0.82480246,8.664018,4.577115,0.0,0.0,0.0
UncalMag,1646543355007,975083407419655,103.2486,16.945799,-60.902397,117.0393,43.061935,-74.063644
OrientationDeg,1646543355001,975083401330488,291,-10,-62
UncalAccel,1646543355011,975083411381113,0.8295909,8.673594,4.601057,0.0,0.0,0.0
UncalGyro,1646543355011,975083411381113,-0.016378429,-0.0010652636,-0.0019973693,0.0035356998,-0.0012886205,0.004326409
UncalMag,1646543355018,975083417419655,103.260796,16.945799,-60.878,117.0393,43.061935,-74.063644
OrientationDeg,1646543355011,975083411381113,291,-10,-62
UncalAccel,1646543355021,975083421431738,0.8631097,8.678383,4.6297874,0.0,0.0,0.0
UncalGyro,1646543355021,975083421431738,-0.008921583,-0.0010652636,-0.0030626329,0.0035356998,-0.0012886205,0.004326409
UncalMag,1646543355028,975083427419655,103.272995,16.9702,-60.9268,117.0393,43.061935,-74.063644
OrientationDeg,1646543355021,975083421431738,291,-10,-61
UncalAccel,1646543355031,975083431482363,0.8678981,8.683171,4.6202106,0.0,0.0,0.0
UncalGyro,1646543355031,975083431482363,-0.0035952649,0.005326318,-0.0019973693,0.0035356998,-0.0012886205,0.004326409
UncalMag,1646543355038,975083437419655,103.2364,16.982399,-60.939,117.0393,43.061935,-74.063644
OrientationDeg,1646543355031,975083431482363,291,-10,-61
UncalAccel,1646543355041,975083441532988,0.8774749,8.673594,4.601057,0.0,0.0,0.0
UncalGyro,1646543355042,975083441532988,0.0017310535,0.003195791,-0.0041278964,0.0035356998,-0.0012886205,0.004326409
UncalMag,1646543355047,975083447419655,103.2364,17.0434,-60.890198,117.0393,43.061935,-74.063644
OrientationDeg,1646543355041,975083441532988,291,-10,-61
UncalAccel,1646543355051,975083451583613,0.8822633,8.664018,4.5675383,0.0,0.0,0.0
UncalGyro,1646543355051,975083451583613,0.005992108,0.0010652636,-0.006258424,0.0035356998,-0.0012886205,0.004326409
UncalMag,1646543355057,975083457419655,103.285194,16.982399,-60.8414,117.0393,43.061935,-74.063644
OrientationDeg,1646543355051,975083451583613,291,-10,-61
UncalAccel,1646543355062,975083461634238,0.8774749,8.6496525,4.5579615,0.0,0.0,0.0
UncalGyro,1646543355062,975083461634238,0.0038615807,-0.0074568456,-0.0051931604,0.0035356998,-0.0012886205,0.004326409
UncalMag,1646543355068,975083467419655,103.260796,16.982399,-60.8658,117.0393,43.061935,-74.063644
OrientationDeg,1646543355062,975083461634238,291,-10,-61
UncalAccel,1646543355072,975083471684863,0.91578215,8.659229,4.553173,0.0,0.0,0.0
UncalGyro,1646543355071,975083471684863,6.6578976E-4,-0.017044218,-0.006258424,0.0035356998,-0.0012886205,0.004326409
UncalMag,1646543355078,975083477419655,103.1876,16.9702,-60.9878,117.0393,43.061935,-74.063644
OrientationDeg,1646543355071,975083471684863,291,-10,-61
UncalAccel,1646543355081,975083481735488,0.8870517,8.644864,4.5340195,0.0,0.0,0.0
UncalGyro,1646543355082,975083481735488,-0.0046605286,-0.015978955,-0.008388951,0.0035356998,-0.0012886205,0.004326409
UncalMag,1646543355088,975083487419655,103.212,16.9214,-61.0976,117.0393,43.061935,-74.063644
OrientationDeg,1646543355081,975083481735488,291,-10,-61
UncalAccel,1646543355091,975083491786113,0.90141696,8.616134,4.5340195,0.0,0.0,0.0
UncalGyro,1646543355091,975083491786113,-0.00785632,-0.014913691,-0.009454215,0.0035356998,-0.0012886205,0.004326409
UncalMag,1646543355098,975083497419655,103.1998,16.8848,-61.183,117.0393,43.061935,-74.063644
OrientationDeg,1646543355091,975083491786113,291,-10,-61
UncalAccel,1646543355101,975083501836738,0.89662856,8.640076,4.5483847,0.0,0.0,0.0
UncalGyro,1646543355101,975083501836738,-0.00785632,-0.010652636,-0.0105194785,0.0035356998,-0.0012886205,0.004326409
UncalMag,1646543355107,975083507419655,103.2364,16.8604,-61.121998,117.0393,43.061935,-74.063644
OrientationDeg,1646543355102,975083501836738,291,-10,-61
UncalAccel,1646543355111,975083511887363,0.8583213,8.654441,4.5340195,0.0,0.0,0.0
UncalGyro,1646543355111,975083511887363,-0.005725792,-0.013848428,-0.006258424,0.0035356998,-0.0012886205,0.004326409
UncalMag,1646543355117,975083517419655,103.1998,16.8604,-61.1586,117.0393,43.061935,-74.063644
OrientationDeg,1646543355111,975083511887363,291,-10,-61
UncalAccel,1646543355121,975083521937988,0.8583213,8.673594,4.5244427,0.0,0.0,0.0
UncalGyro,1646543355121,975083521937988,-0.002530001,-0.013848428,-0.0019973693,0.0035356998,-0.0012886205,0.004326409
UncalMag,1646543355127,975083527419655,103.2364,16.8482,-61.207397,117.0393,43.061935,-74.063644
OrientationDeg,1646543355122,975083521937988,291,-10,-61
UncalAccel,1646543355131,975083531988613,0.8535329,8.668806,4.5435963,0.0,0.0,0.0
UncalGyro,1646543355132,975083531988613,-0.0046605286,-0.017044218,-0.0030626329,0.0035356998,-0.0012886205,0.004326409
UncalMag,1646543355137,975083537419655,103.2486,16.909199,-61.2318,117.0393,43.061935,-74.063644
OrientationDeg,1646543355131,975083531988613,291,-10,-61
UncalAccel,1646543355142,975083542039238,0.8391677,8.673594,4.5483847,0.0,0.0,0.0
UncalGyro,1646543355142,975083542039238,-0.0035952649,-0.020240009,-9.321057E-4,0.0035356998,-0.0012886205,0.004326409
UncalMag,1646543355148,975083547419655,103.212,16.8726,-61.2318,117.0393,43.061935,-74.063644
OrientationDeg,1646543355142,975083542039238,291,-10,-61
UncalAccel,1646543355152,975083552089863,0.8535329,8.668806,4.5483847,0.0,0.0,0.0
UncalGyro,1646543355152,975083552089863,0.0017310535,-0.0234358,1.3315796E-4,0.0035356998,-0.0012886205,0.004326409
UncalMag,1646543355157,975083557419655,103.2242,16.8848,-61.207397,117.0393,43.061935,-74.063644
OrientationDeg,1646543355152,975083552089863,291,-10,-61
UncalAccel,1646543355162,975083562140488,0.8391677,8.664018,4.5675383,0.0,0.0,0.0
UncalGyro,1646543355162,975083562140488,0.0017310535,-0.024501063,-0.0041278964,0.0035356998,-0.0012886205,0.004326409
UncalMag,1646543355167,975083567419655,103.1998,16.9214,-61.1586,117.0393,43.061935,-74.063644
UncalAccel,1646543355172,975083572191113,0.8391677,8.6496525,4.5483847,0.0,0.0,0.0
UncalGyro,1646543355172,975083572191113,-3.9947388E-4,-0.025566328,-0.0041278964,0.0035356998,-0.0012886205,0.004326409
OrientationDeg,1646543355163,975083562140488,291,-10,-61
OrientationDeg,1646543355172,975083572191113,291,-10,-61
UncalMag,1646543355177,975083577419655,103.1998,16.9336,-61.183,117.0393,43.061935,-74.063644
UncalAccel,1646543355182,975083582241738,0.82480246,8.654441,4.5579615,0.0,0.0,0.0
UncalGyro,1646543355183,975083582241738,6.6578976E-4,-0.019174745,1.3315796E-4,0.0035356998,-0.0012886205,0.004326409
UncalMag,1646543355187,975083587419655,103.2486,16.982399,-61.2318,117.0393,43.061935,-74.063644
UncalGyro,1646543355192,975083592292363,-3.9947388E-4,-0.018109482,0.003328949,0.0035356998,-0.0012886205,0.004326409
UncalAccel,1646543355192,975083592292363,0.8295909,8.664018,4.553173,0.0,0.0,0.0
UncalMag,1646543355198,975083597419655,103.2974,17.0312,-61.2562,117.0393,43.061935,-74.063644
OrientationDeg,1646543355182,975083582241738,291,-10,-61
OrientationDeg,1646543355192,975083592292363,291,-10,-61
UncalAccel,1646543355202,975083602342988,0.8487445,8.673594,4.5579615,0.0,0.0,0.0
UncalGyro,1646543355202,975083602342988,6.6578976E-4,-0.015978955,0.003328949,0.0035356998,-0.0012886205,0.004326409
UncalMag,1646543355207,975083607419655,103.212,17.019,-61.183,117.0393,43.061935,-74.063644
OrientationDeg,1646543355203,975083602342988,291,-10,-61
UncalAccel,1646543355212,975083612393613,0.8631097,8.664018,4.5819035,0.0,0.0,0.0
UncalGyro,1646543355212,975083612393613,0.002796317,-0.010652636,0.003328949,0.0035356998,-0.0012886205,0.004326409
UncalMag,1646543355218,975083617419655,103.1754,17.019,-61.1586,117.0393,43.061935,-74.063644
OrientationDeg,1646543355212,975083612393613,291,-10,-61
UncalAccel,1646543355222,975083622444238,0.8774749,8.673594,4.586692,0.0,0.0,0.0
UncalGyro,1646543355222,975083622444238,0.0049268445,-0.0042610546,0.003328949,0.0035356998,-0.0012886205,0.004326409
OrientationDeg,1646543355222,975083622444238,291,-10,-61
UncalMag,1646543355227,975083627419655,103.2242,17.0434,-61.1464,117.0393,43.061935,-74.063644
UncalGyro,1646543355232,975083632494863,0.0017310535,0.0042610546,1.3315796E-4,0.0035356998,-0.0012886205,0.004326409
UncalAccel,1646543355232,975083632494863,0.89184016,8.683171,4.5819035,0.0,0.0,0.0
UncalMag,1646543355237,975083637419655,103.212,17.0312,-61.1098,117.0393,43.061935,-74.063644
OrientationDeg,1646543355232,975083632494863,291,-10,-61
UncalGyro,1646543355242,975083642545488,6.6578976E-4,0.006391582,-0.0019973693,0.0035356998,-0.0012886205,0.004326409
UncalAccel,1646543355242,975083642545488,0.8822633,8.68796,4.5819035,0.0,0.0,0.0
UncalMag,1646543355247,975083647419655,103.1876,17.0434,-61.0976,117.0393,43.061935,-74.063644
OrientationDeg,1646543355243,975083642545488,291,-10,-61
UncalAccel,1646543355252,975083652596113,0.8774749,8.673594,4.5723267,0.0,0.0,0.0
UncalGyro,1646543355252,975083652596113,6.6578976E-4,0.0042610546,-0.0019973693,0.0035356998,-0.0012886205,0.004326409
UncalMag,1646543355258,975083657419655,103.260796,17.08,-61.0122,117.0393,43.061935,-74.063644
OrientationDeg,1646543355252,975083652596113,291,-10,-61
UncalAccel,1646543355262,975083662646738,0.8726865,8.668806,4.5675383,0.0,0.0,0.0
UncalGyro,1646543355262,975083662646738,-0.0014647375,0.003195791,-9.321057E-4,0.0035356998,-0.0012886205,0.004326409
UncalMag,1646543355267,975083667419655,103.2486,17.0312,-60.939,117.0393,43.061935,-74.063644
OrientationDeg,1646543355263,975083662646738,291,-10,-61
UncalAccel,1646543355273,975083672697363,0.8726865,8.659229,4.5819035,0.0,0.0,0.0
UncalGyro,1646543355272,975083672697363,-0.0014647375,0.003195791,1.3315796E-4,0.0035356998,-0.0012886205,0.004326409
UncalMag,1646543355277,975083677419655,103.272995,17.019,-60.890198,117.0393,43.061935,-74.063644
OrientationDeg,1646543355273,975083672697363,291,-10,-61
UncalAccel,1646543355282,975083682747988,0.8583213,8.673594,4.601057,0.0,0.0,0.0
UncalGyro,1646543355282,975083682747988,-0.0035952649,0.005326318,0.0011984216,0.0035356998,-0.0012886205,0.004326409
UncalMag,1646543355287,975083687419655,103.334,16.9946,-60.9146,117.0393,43.061935,-74.063644
OrientationDeg,1646543355283,975083682747988,291,-10,-61
UncalGyro,1646543355293,975083692798613,6.6578976E-4,-0.0,0.0054594763,0.0035356998,-0.0012886205,0.004326409
UncalAccel,1646543355293,975083692798613,0.8535329,8.664018,4.5962687,0.0,0.0,0.0
UncalMag,1646543355297,975083697419655,103.3828,16.982399,-60.878,117.0393,43.061935,-74.063644
OrientationDeg,1646543355292,975083692798613,291,-10,-61
UncalAccel,1646543355302,975083702849238,0.8631097,8.6496525,4.6202106,0.0,0.0,0.0
UncalGyro,1646543355302,975083702849238,0.0049268445,-0.019174745,0.0043942127,0.0035356998,-0.0012886205,0.004326409
UncalMag,1646543355307,975083707419655,103.395,16.9702,-60.816998,117.0393,43.061935,-74.063644
OrientationDeg,1646543355302,975083702849238,291,-10,-61
UncalAccel,1646543355313,975083712899863,0.8391677,8.6496525,4.6441526,0.0,0.0,0.0
UncalGyro,1646543355312,975083712899863,0.010253162,-0.021305272,0.013981585,0.0035356998,-0.0012886205,0.004326409
UncalMag,1646543355317,975083717419655,103.395,16.9336,-60.8048,117.0393,43.061935,-74.063644
OrientationDeg,1646543355313,975083712899863,291,-10,-61
UncalAccel,1646543355322,975083722950488,0.8295909,8.726267,4.5340195,0.0,0.0,0.0
UncalGyro,1646543355322,975083722950488,0.01238369,-0.036218964,0.025699485,0.0035356998,-0.0012886205,0.004326409
UncalMag,1646543355327,975083727419655,103.395,16.945799,-60.7926,117.0393,43.061935,-74.063644
OrientationDeg,1646543355322,975083722950488,291,-10,-61
UncalAccel,1646543355333,975083733001113,0.8726865,8.759786,4.5435963,0.0,0.0,0.0
UncalGyro,1646543355334,975083733001113,0.015579481,-0.04367581,0.022503695,0.0035356998,-0.0012886205,0.004326409
UncalMag,1646543355337,975083737419655,103.3706,16.9214,-60.743797,117.0393,43.061935,-74.063644
OrientationDeg,1646543355333,975083733001113,291,-10,-61
UncalAccel,1646543355344,975083743051738,0.92535895,8.8364,4.514866,0.0,0.0,0.0
UncalGyro,1646543355343,975083743051738,0.014514217,-0.06817687,0.01824264,0.0035356998,-0.0012886205,0.004326409
UncalMag,1646543355347,975083747419655,103.395,16.958,-60.756,117.0393,43.061935,-74.063644
OrientationDeg,1646543355344,975083743051738,291,-10,-61
UncalAccel,1646543355353,975083753102363,0.90620536,8.764574,4.4526167,0.0,0.0,0.0
UncalGyro,1646543355354,975083753102363,0.011318427,-0.0820253,0.01824264,0.0035356998,-0.0012886205,0.004326409
UncalMag,1646543355357,975083757419655,103.3706,16.9336,-60.756,117.0393,43.061935,-74.063644
OrientationDeg,1646543355353,975083753102363,291,-11,-61
UncalAccel,1646543355363,975083763152988,0.93014735,8.826823,4.466982,0.0,0.0,0.0
UncalGyro,1646543355364,975083763152988,0.014514217,-0.11398321,0.013981585,0.0035356998,-0.0012886205,0.004326409
UncalMag,1646543355367,975083767419655,103.3462,16.897,-60.7682,117.0393,43.061935,-74.063644
OrientationDeg,1646543355363,975083763152988,291,-11,-61
UncalAccel,1646543355373,975083773203613,0.9876082,8.879496,4.529231,0.0,0.0,0.0
UncalGyro,1646543355373,975083773203613,0.0326237,-0.091612674,-0.006258424,0.0035356998,-0.0012886205,0.004326409
OrientationDeg,1646543355373,975083773203613,291,-11,-61
UncalMag,1646543355377,975083777419655,103.2974,16.897,-60.7926,117.0393,43.061935,-74.063644
UncalGyro,1646543355383,975083783254238,0.0677774,-0.017044218,-0.03395528,0.0035356998,-0.0012886205,0.004326409
UncalAccel,1646543355383,975083783254238,0.89184016,8.841188,4.5100775,0.0,0.0,0.0
UncalMag,1646543355388,975083787419655,103.272995,16.8848,-60.7682,117.0393,43.061935,-74.063644
OrientationDeg,1646543355383,975083783254238,291,-11,-61
UncalAccel,1646543355393,975083793304863,0.8583213,8.951322,4.6202106,0.0,0.0,0.0
UncalGyro,1646543355394,975083793304863,0.124236375,0.0010652636,-0.065913185,0.0035356998,-0.0012886205,0.004326409
UncalMag,1646543355398,975083797419655,103.3096,16.909199,-60.731598,117.0393,43.061935,-74.063644
OrientationDeg,1646543355393,975083793304863,291,-11,-62
UncalGyro,1646543355403,975083803355488,0.19880483,-0.018109482,-0.10106689,0.0035356998,-0.0012886205,0.004326409
UncalAccel,1646543355403,975083803355488,0.8487445,8.92738,4.8261123,0.0,0.0,0.0
UncalMag,1646543355408,975083807419655,103.3828,16.9214,-60.6828,117.0393,43.061935,-74.063644
OrientationDeg,1646543355403,975083803355488,291,-11,-62
UncalAccel,1646543355413,975083813406113,0.8439561,8.884284,4.955399,0.0,0.0,0.0
UncalGyro,1646543355413,975083813406113,0.2786996,-0.040480018,-0.109588996,0.0035356998,-0.0012886205,0.004326409
UncalMag,1646543355417,975083817419655,103.443794,17.0068,-60.7194,117.0393,43.061935,-74.063644
OrientationDeg,1646543355413,975083813406113,291,-10,-62
UncalAccel,1646543355423,975083823456738,0.8535329,8.8364,4.8548427,0.0,0.0,0.0
UncalGyro,1646543355423,975083823456738,0.3543333,-0.10759163,-0.12237216,0.0035356998,-0.0012886205,0.004326409
UncalMag,1646543355428,975083827419655,103.3706,16.958,-60.670597,117.0393,43.061935,-74.063644
OrientationDeg,1646543355423,975083823456738,291,-10,-62
UncalAccel,1646543355434,975083833507363,0.8678981,8.951322,4.9027267,0.0,0.0,0.0
UncalGyro,1646543355433,975083833507363,0.3958786,-0.12783164,-0.12450269,0.0035356998,-0.0012886205,0.004326409
UncalMag,1646543355437,975083837419655,103.3462,16.9336,-60.5364,117.0393,43.061935,-74.063644
OrientationDeg,1646543355434,975083833507363,291,-10,-62
UncalAccel,1646543355443,975083843557988,0.8631097,9.027936,4.8069587,0.0,0.0,0.0
UncalGyro,1646543355443,975083843557988,0.4075965,-0.101200044,-0.1063932,0.0035356998,-0.0012886205,0.004326409
UncalMag,1646543355448,975083847419655,103.3706,16.9336,-60.4144,117.0393,43.061935,-74.063644
OrientationDeg,1646543355443,975083843557988,291,-10,-62
UncalAccel,1646543355453,975083853608613,0.34117374,9.276933,4.23235,0.0,0.0,0.0
UncalGyro,1646543355453,975083853608613,0.34687647,0.070307404,0.012916322,0.0035356998,-0.0012886205,0.004326409
UncalMag,1646543355457,975083857419655,103.456,16.8726,-60.3168,117.0393,43.061935,-74.063644
UncalAccel,1646543355464,975083863659238,-0.008379706,9.391854,3.6290112,0.0,0.0,0.0
UncalGyro,1646543355464,975083863659238,0.23608905,0.2577938,0.13329111,0.0035356998,-0.0012886205,0.004326409
UncalMag,1646543355467,975083867419655,103.4926,16.8848,-60.280197,117.0393,43.061935,-74.063644
OrientationDeg,1646543355453,975083853608613,291,-10,-63
OrientationDeg,1646543355464,975083863659238,291,-10,-63
UncalAccel,1646543355474,975083873709863,0.049081136,9.3104515,3.2411506,0.0,0.0,0.0
UncalGyro,1646543355473,975083873709863,0.11997532,0.2961433,0.19294588,0.0035356998,-0.0012886205,0.004326409
UncalMag,1646543355477,975083877419655,103.5048,16.8726,-60.2314,117.0393,43.061935,-74.063644
OrientationDeg,1646543355473,975083873709863,291,-10,-63
UncalAccel,1646543355483,975083883760488,-0.0035913025,9.162011,3.4566288,0.0,0.0,0.0
UncalGyro,1646543355484,975083883760488,0.04860265,0.19707377,0.20892483,0.0035356998,-0.0012886205,0.004326409
UncalMag,1646543355488,975083887419655,103.4926,16.8238,-60.1582,117.0393,43.061935,-74.063644
OrientationDeg,1646543355484,975083883760488,291,-10,-63
UncalGyro,1646543355493,975083893811113,-0.02809633,0.1842906,0.21957746,0.0035356998,-0.0012886205,0.004326409
UncalAccel,1646543355493,975083893811113,0.020350715,8.960898,3.590704,0.0,0.0,0.0
UncalMag,1646543355497,975083897419655,103.456,16.7628,-60.024,117.0393,43.061935,-74.063644
OrientationDeg,1646543355494,975083893811113,291,-10,-63
UncalGyro,1646543355503,975083903861738,-0.11225215,0.15659375,0.22490379,0.0035356998,-0.0012886205,0.004326409
UncalAccel,1646543355504,975083903861738,0.33159694,8.95611,3.4087446,0.0,0.0,0.0
UncalMag,1646543355508,975083907419655,103.5048,16.8238,-59.9996,117.0393,43.061935,-74.063644
OrientationDeg,1646543355503,975083903861738,291,-10,-63
UncalAccel,1646543355513,975083913912363,0.5614403,9.051878,3.5859156,0.0,0.0,0.0
UncalGyro,1646543355514,975083913912363,-0.14740586,0.123570584,0.22916484,0.0035356998,-0.0012886205,0.004326409
UncalMag,1646543355518,975083917419655,103.5292,16.8238,-59.9752,117.0393,43.061935,-74.063644
OrientationDeg,1646543355513,975083913912363,290,-10,-63
UncalAccel,1646543355523,975083923962988,0.6380547,9.018359,3.839701,0.0,0.0,0.0
UncalGyro,1646543355523,975083923962988,-0.14953639,0.11824426,0.24407853,0.0035356998,-0.0012886205,0.004326409
UncalMag,1646543355527,975083927419655,103.443794,16.8604,-59.950798,117.0393,43.061935,-74.063644
OrientationDeg,1646543355524,975083923962988,290,-11,-63
UncalAccel,1646543355534,975083934013613,0.6380547,8.922591,4.007295,0.0,0.0,0.0
UncalGyro,1646543355534,975083934013613,-0.12929638,0.13528848,0.26112276,0.0035356998,-0.0012886205,0.004326409
UncalMag,1646543355537,975083937419655,103.407196,16.8848,-60.036198,117.0393,43.061935,-74.063644
OrientationDeg,1646543355534,975083934013613,290,-11,-63
UncalAccel,1646543355544,975083944064238,0.7194576,8.860342,4.1701007,0.0,0.0,0.0
UncalGyro,1646543355544,975083944064238,-0.092012145,0.15339796,0.26431856,0.0035356998,-0.0012886205,0.004326409
UncalMag,1646543355547,975083947419655,103.3706,16.9214,-60.036198,117.0393,43.061935,-74.063644
OrientationDeg,1646543355544,975083944064238,290,-11,-63
UncalAccel,1646543355554,975083954114863,0.81043726,8.845977,4.2275615,0.0,0.0,0.0
UncalGyro,1646543355554,975083954114863,-0.058988973,0.13848427,0.2685796,0.0035356998,-0.0012886205,0.004326409
UncalMag,1646543355558,975083957419655,103.3828,16.982399,-60.0606,117.0393,43.061935,-74.063644
OrientationDeg,1646543355554,975083954114863,289,-11,-63
UncalAccel,1646543355564,975083964165488,0.8295909,8.778939,4.23235,0.0,0.0,0.0
UncalGyro,1646543355564,975083964165488,-0.041944757,0.13741902,0.27816698,0.0035356998,-0.0012886205,0.004326409
UncalMag,1646543355567,975083967419655,103.3096,17.0312,-60.1338,117.0393,43.061935,-74.063644
OrientationDeg,1646543355564,975083964165488,289,-11,-63
UncalAccel,1646543355574,975083974216113,0.90620536,8.740632,4.3041763,0.0,0.0,0.0
UncalGyro,1646543355574,975083974216113,-0.03448791,0.17150745,0.28136277,0.0035356998,-0.0012886205,0.004326409
UncalMag,1646543355577,975083977419655,103.1876,17.0556,-60.2558,117.0393,43.061935,-74.063644
OrientationDeg,1646543355575,975083974216113,289,-11,-63
UncalAccel,1646543355584,975083984266738,0.9876082,8.750209,4.2898107,0.0,0.0,0.0
UncalGyro,1646543355584,975083984266738,-0.036618438,0.19068219,0.28242803,0.0035356998,-0.0012886205,0.004326409
UncalMag,1646543355588,975083987419655,103.0534,16.9946,-60.3046,117.0393,43.061935,-74.063644
OrientationDeg,1646543355584,975083984266738,288,-12,-63
UncalAccel,1646543355594,975083994317363,1.021127,8.74542,4.3281183,0.0,0.0,0.0
UncalGyro,1646543355594,975083994317363,-0.04301002,0.21624851,0.29095012,0.0035356998,-0.0012886205,0.004326409
Status,0,35,0,1,2,1575420032,34.90,118.00,26.00,1,1,1,31.300001
Status,0,35,1,1,5,1575420032,33.70,45.00,50.00,1,1,1,30.1
Status,0,35,2,1,11,1575420032,33.70,0.00,0.00,0,0,0,30.1
Status,0,35,3,1,13,1575420032,38.00,91.00,61.00,1,1,1,34.4
Status,0,35,4,1,15,1575420032,25.80,184.00,65.00,1,1,1,22.199999
Status,0,35,5,1,18,1575420032,29.50,313.00,38.00,1,1,1,25.9
Status,0,35,6,1,20,1575420032,27.10,65.00,28.00,1,1,1,23.5
Status,0,35,7,1,23,1575420032,19.30,264.00,20.00,0,1,1,15.699999
Status,0,35,8,1,29,1575420032,33.10,233.00,60.00,1,1,1,29.499998
Status,0,35,9,1,30,1575420032,21.30,51.00,7.00,1,1,1,17.699999
Status,0,35,10,1,24,1575420032,0.00,168.00,1.00,0,1,1,0.0
Status,0,35,11,2,138,1575420032,35.60,0.00,0.00,0,0,0,31.999998
Status,0,35,12,3,6,1599750016,23.90,28.00,46.00,0,1,0,19.9
Status,0,35,13,3,22,1600312448,22.70,337.00,64.00,1,1,0,18.7
Status,0,35,14,3,23,1603687552,14.10,326.00,3.00,0,1,0,10.1
Status,0,35,15,3,21,1604249984,32.60,135.00,60.00,1,1,1,28.599998
Status,0,35,16,3,7,1604812544,32.00,260.00,72.00,1,1,1,28.0
Status,0,35,17,3,8,1605374976,35.30,227.00,24.00,1,1,0,31.3
Status,0,35,18,3,20,1603124992,0.00,142.00,2.00,0,1,0,0.0
Status,0,35,19,6,4,1575420032,29.80,79.00,72.00,1,1,1,25.5
Status,0,35,20,6,9,1575420032,27.50,204.00,44.00,1,1,1,23.2
Status,0,35,21,6,11,1575420032,26.20,26.00,80.00,1,1,0,21.900002
Status,0,35,22,6,12,1575420032,28.60,120.00,34.00,1,1,1,24.3
Status,0,35,23,6,19,1575420032,24.60,42.00,17.00,0,1,0,20.3
Status,0,35,24,6,36,1575420032,23.50,315.00,34.00,1,1,0,19.2
Status,0,35,25,1,18,1176450048,0.00,313.00,38.00,0,1,1,0.0
Status,0,35,26,1,23,1176450048,0.00,264.00,20.00,0,1,1,0.0
Status,0,35,27,1,24,1176450048,0.00,168.00,1.00,0,1,1,0.0
Status,0,35,28,1,30,1176450048,0.00,51.00,7.00,0,1,1,0.0
Status,0,35,29,6,4,1176450048,0.00,79.00,72.00,0,1,1,0.0
Status,0,35,30,6,9,1176450048,0.00,204.00,44.00,0,1,1,0.0
Status,0,35,31,6,11,1176450048,0.00,26.00,80.00,0,1,0,0.0
Status,0,35,32,6,12,1176450048,0.00,120.00,34.00,0,1,1,0.0
Status,0,35,33,6,19,1176450048,0.00,42.00,17.00,0,1,0,0.0
Status,0,35,34,6,36,1176450048,0.00,315.00,34.00,0,1,0,0.0
UncalMag,1646543355597,975083997419655,102.907,17.0556,-60.3778,117.0393,43.061935,-74.063644
UncalAccel,1646543355605,975084004367988,1.0594343,8.702325,4.409521,0.0,0.0,0.0
UncalGyro,1646543355605,975084004367988,-0.0494016,0.23542327,0.30160278,0.0035356998,-0.0012886205,0.004326409
OrientationDeg,1646543355594,975083994317363,288,-12,-63
UncalMag,1646543355607,975084007419655,102.821594,17.0556,-60.4632,117.0393,43.061935,-74.063644
OrientationDeg,1646543355604,975084004367988,288,-12,-63
Raw,1646543354421,635469581000000,18,,-1329943102840661731,0.11449432373046875,28.13845276250504,-20.180008078265814,9.738777120427654,5,2,0.0,16399,18572343636654,13,34.9,436.02032470703125,0.04739195108413696,16,0.0,0.0,1.57542003E9,,,,0,,1,0.9,31.299999999999997,0.0,0.0,,,C,975083416492355
Raw,1646543354421,635469581000000,18,,-1329943102840661731,0.11449432373046875,28.13845276250504,-20.180008078265814,9.738777120427654,5,5,0.0,16399,18572350793044,14,33.7,346.3055725097656,0.037995655089616776,16,0.0,0.0,1.57542003E9,,,,0,,1,0.9,30.1,0.0,0.0,,,C,975083416492355
Raw,1646543354421,635469581000000,18,,-1329943102840661731,0.11449432373046875,28.13845276250504,-20.180008078265814,9.738777120427654,5,13,0.0,16399,18572353141538,10,38.0,17.136335372924805,0.029899103567004204,16,0.0,0.0,1.57542003E9,,,,0,,1,0.9,34.4,0.0,0.0,,,C,975083416492355
Raw,1646543354421,635469581000000,18,,-1329943102840661731,0.11449432373046875,28.13845276250504,-20.180008078265814,9.738777120427654,5,15,0.0,16399,18572353797187,35,25.8,-343.0614318847656,0.793999969959259,16,0.0,0.0,1.57542003E9,,,,0,,1,0.9,22.2,0.0,0.0,,,C,975083416492355
Raw,1646543354421,635469581000000,18,,-1329943102840661731,0.11449432373046875,28.13845276250504,-20.180008078265814,9.738777120427654,5,18,0.0,16399,18572348157075,24,29.5,-498.3394775390625,0.6783843040466309,16,0.0,0.0,1.57542003E9,,,,0,,1,0.9,25.9,0.0,0.0,,,C,975083416492355
Raw,1646543354421,635469581000000,18,,-1329943102840661731,0.11449432373046875,28.13845276250504,-20.180008078265814,9.738777120427654,5,20,0.0,16399,18572345863265,31,27.1,450.0730895996094,0.6859999895095825,16,0.0,0.0,1.57542003E9,,,,0,,1,0.9,23.5,0.0,0.0,,,C,975083416492355
Raw,1646543354421,635469581000000,18,,-1329943102840661731,0.11449432373046875,28.13845276250504,-20.180008078265814,9.738777120427654,5,29,0.0,16399,18572351768502,16,33.1,227.67796325683594,0.04140523076057434,16,0.0,0.0,1.57542003E9,,,,0,,1,0.9,29.5,0.0,0.0,,,C,975083416492355
Raw,1646543354421,635469581000000,18,,-1329943102840661731,0.11449432373046875,28.13845276250504,-20.180008078265814,9.738777120427654,5,30,0.0,16399,18572337277261,70,21.3,42.1690788269043,1.0779999494552612,16,0.0,0.0,1.57542003E9,,,,0,,1,0.9,17.7,0.0,0.0,,,C,975083416492355
Raw,1646543354421,635469581000000,18,,-1329943102840661731,0.11449432373046875,28.13845276250504,-20.180008078265814,9.738777120427654,5,6,0.0,49359,29354353144450,53,23.9,525.35595703125,0.9239999651908875,16,0.0,0.0,1.59975002E9,,,,0,,3,-2.94,19.9,3847.896240234375,7.993800640106201,,,C,975083416492355
Raw,1646543354421,635469581000000,18,,-1329943102840661731,0.11449432373046875,28.13845276250504,-20.180008078265814,9.738777120427654,5,21,0.0,49359,29354355470192,17,32.6,343.8603210449219,0.03651053458452225,16,0.0,0.0,1.60424998E9,,,,0,,3,-2.94,28.6,3847.896240234375,7.993800640106201,,,C,975083416492355
Raw,1646543354421,635469581000000,18,,-1329943102840661731,0.11449432373046875,28.13845276250504,-20.180008078265814,9.738777120427654,5,7,0.0,49359,29354356955429,17,32.0,-114.34514617919922,0.03500509634613991,16,0.0,0.0,1.60481254E9,,,,0,,3,-2.94,28.0,3847.896240234375,7.993800640106201,,,C,975083416492355
Raw,1646543354421,635469581000000,18,,-1329943102840661731,0.11449432373046875,28.13845276250504,-20.180008078265814,9.738777120427654,5,8,0.0,49359,29354347496207,13,35.3,-626.85595703125,0.041235364973545074,16,0.0,0.0,1.60537498E9,,,,0,,3,-2.94,31.299999999999997,3847.896240234375,7.993800640106201,,,C,975083416492355
Raw,1646543354421,635469581000000,18,,-1329943102840661731,0.11449432373046875,28.13845276250504,-20.180008078265814,9.738777120427654,5,4,0.0,23567,18572342364150,24,29.8,63.23338317871094,0.05689182132482529,16,0.0,0.0,1.57542003E9,,,,0,,6,0.92,25.5,-1466.7899169921875,7.42099142074585,,,C,975083416492355
Raw,1646543354421,635469581000000,18,,-1329943102840661731,0.11449432373046875,28.13845276250504,-20.180008078265814,9.738777120427654,5,9,0.0,23567,18572344338999,31,27.5,-438.27001953125,0.06870638579130173,16,0.0,0.0,1.57542003E9,,,,0,,6,0.92,23.2,-1466.7899169921875,7.42099142074585,,,C,975083416492355
Raw,1646543354421,635469581000000,18,,-1329943102840661731,0.11449432373046875,28.13845276250504,-20.180008078265814,9.738777120427654,5,11,0.0,23567,18572348225212,40,26.2,-58.38449478149414,0.0770602822303772,16,0.0,0.0,1.57542003E9,,,,0,,6,0.92,21.9,-1466.7899169921875,7.42099142074585,,,C,975083416492355
Raw,1646543354421,635469581000000,18,,-1329943102840661731,0.11449432373046875,28.13845276250504,-20.180008078265814,9.738777120427654,5,12,0.0,23567,18572341147924,27,28.6,371.1165771484375,0.06864597648382187,16,0.0,0.0,1.57542003E9,,,,0,,6,0.92,24.3,-1466.7899169921875,7.42099142074585,,,C,975083416492355
Raw,1646543354421,635469581000000,18,,-1329943102840661731,0.11449432373046875,28.13845276250504,-20.180008078265814,9.738777120427654,5,19,0.0,23567,18572330473710,46,24.6,496.8302001953125,0.10274328291416168,16,0.0,0.0,1.57542003E9,,,,0,,6,0.92,20.3,-1466.7899169921875,7.42099142074585,,,C,975083416492355
Raw,1646543354421,635469581000000,18,,-1329943102840661731,0.11449432373046875,28.13845276250504,-20.180008078265814,9.738777120427654,5,36,0.0,23567,18572336105487,53,23.5,-432.0155029296875,0.1550806760787964,16,0.0,0.0,1.57542003E9,,,,0,,6,0.92,19.2,-1466.7899169921875,7.42099142074585,,,C,975083416492355
UncalAccel,1646543355615,975084014418613,1.0785879,8.673594,4.4238863,0.0,0.0,0.0
UncalGyro,1646543355615,975084014418613,-0.05472792,0.20879167,0.30799434,0.0035356998,-0.0012886205,0.004326409
UncalMag,1646543355617,975084017419655,102.602,17.104399,-60.426598,117.0393,43.061935,-74.063644
UncalAccel,1646543355624,975084024469238,1.1504139,8.573038,4.490924,0.0,0.0,0.0
UncalGyro,1646543355624,975084024469238,-0.055793185,0.18002956,0.29947224,0.0035356998,-0.0012886205,0.004326409
UncalMag,1646543355627,975084027419655,102.419,17.140999,-60.4144,117.0393,43.061935,-74.063644
UncalAccel,1646543355634,975084034519863,1.2030864,8.496424,4.56275,0.0,0.0,0.0
UncalGyro,1646543355634,975084034519863,-0.053662658,0.15872428,0.29308066,0.0035356998,-0.0012886205,0.004326409
UncalMag,1646543355637,975084037419655,102.174995,17.1166,-60.4632,117.0393,43.061935,-74.063644
UncalAccel,1646543355644,975084044570488,1.2366052,8.482059,4.5723267,0.0,0.0,0.0
UncalGyro,1646543355644,975084044570488,-0.052597392,0.124635845,0.2941459,0.0035356998,-0.0012886205,0.004326409
UncalMag,1646543355647,975084047419655,102.028595,17.1288,-60.426598,117.0393,43.061935,-74.063644
UncalGyro,1646543355654,975084054621113,-0.05792371,0.10652637,0.29095012,0.0035356998,-0.0012886205,0.004326409
UncalAccel,1646543355654,975084054621113,1.2892777,8.429385,4.5962687,0.0,0.0,0.0
OrientationDeg,1646543355614,975084014418613,287,-12,-63
OrientationDeg,1646543355624,975084024469238,287,-12,-62
OrientationDeg,1646543355634,975084034519863,286,-13,-62
OrientationDeg,1646543355644,975084044570488,286,-13,-62
UncalMag,1646543355657,975084057419655,101.8944,17.1166,-60.39,117.0393,43.061935,-74.063644
OrientationDeg,1646543355655,975084054621113,286,-13,-62
UncalAccel,1646543355664,975084064671738,1.3275849,8.362348,4.586692,0.0,0.0,0.0
UncalGyro,1646543355665,975084064671738,-0.071772136,0.10226531,0.2749712,0.0035356998,-0.0012886205,0.004326409
UncalMag,1646543355667,975084067419655,101.8334,17.202,-60.341198,117.0393,43.061935,-74.063644
OrientationDeg,1646543355664,975084064671738,285,-14,-62
UncalAccel,1646543355674,975084074722363,1.3706805,8.328829,4.6393642,0.0,0.0,0.0
UncalGyro,1646543355675,975084074722363,-0.07922898,0.10652637,0.25579643,0.0035356998,-0.0012886205,0.004326409
OrientationDeg,1646543355674,975084074722363,285,-14,-62
UncalMag,1646543355678,975084077419655,101.7358,17.2142,-60.267998,117.0393,43.061935,-74.063644
UncalAccel,1646543355684,975084084772988,1.389834,8.319252,4.696825,0.0,0.0,0.0
UncalGyro,1646543355684,975084084772988,-0.07603319,0.123570584,0.23449115,0.0035356998,-0.0012886205,0.004326409
UncalMag,1646543355687,975084087419655,101.6382,17.2386,-60.3778,117.0393,43.061935,-74.063644
OrientationDeg,1646543355684,975084084772988,285,-14,-62
UncalGyro,1646543355694,975084094823613,-0.06538056,0.13848427,0.21957746,0.0035356998,-0.0012886205,0.004326409
UncalAccel,1646543355694,975084094823613,1.3802572,8.29531,4.787805,0.0,0.0,0.0
OrientationDeg,1646543355694,975084094823613,285,-14,-62
UncalMag,1646543355697,975084097419655,101.564995,17.263,-60.426598,117.0393,43.061935,-74.063644
UncalGyro,1646543355704,975084104874238,-0.04620581,0.14594112,0.21318589,0.0035356998,-0.0012886205,0.004326409
UncalAccel,1646543355704,975084104874238,1.4137762,8.304887,4.8500543,0.0,0.0,0.0
UncalMag,1646543355707,975084107419655,101.504,17.2508,-60.4876,117.0393,43.061935,-74.063644
OrientationDeg,1646543355704,975084104874238,284,-14,-62
UncalGyro,1646543355714,975084114924863,-0.035553172,0.14594112,0.20572904,0.0035356998,-0.0012886205,0.004326409
UncalAccel,1646543355714,975084114924863,1.4329298,8.309675,4.8644195,0.0,0.0,0.0
UncalMag,1646543355717,975084117419655,101.4308,17.2996,-60.499798,117.0393,43.061935,-74.063644
OrientationDeg,1646543355714,975084114924863,284,-14,-61
UncalAccel,1646543355724,975084124975488,1.4664485,8.271368,4.883573,0.0,0.0,0.0
UncalGyro,1646543355724,975084124975488,-0.030226856,0.13848427,0.1865543,0.0035356998,-0.0012886205,0.004326409
UncalMag,1646543355727,975084127419655,101.3088,17.2752,-60.5486,117.0393,43.061935,-74.063644
OrientationDeg,1646543355724,975084124975488,284,-14,-61
UncalAccel,1646543355735,975084135026113,1.4664485,8.32404,4.89315,0.0,0.0,0.0
UncalGyro,1646543355735,975084135026113,-0.02809633,0.12144005,0.1631185,0.0035356998,-0.0012886205,0.004326409
UncalMag,1646543355737,975084137419655,101.199,17.263,-60.670597,117.0393,43.061935,-74.063644
OrientationDeg,1646543355736,975084135026113,284,-15,-61
UncalAccel,1646543355745,975084145076738,1.4377182,8.362348,4.9123034,0.0,0.0,0.0
UncalGyro,1646543355745,975084145076738,-0.029161593,0.09587373,0.14713953,0.0035356998,-0.0012886205,0.004326409
UncalMag,1646543355747,975084147419655,101.0648,17.2508,-60.743797,117.0393,43.061935,-74.063644
OrientationDeg,1646543355745,975084145076738,283,-15,-61
UncalGyro,1646543355756,975084155127363,-0.02809633,0.06604634,0.14074796,0.0035356998,-0.0012886205,0.004326409
UncalAccel,1646543355756,975084155127363,1.4089876,8.381501,4.917092,0.0,0.0,0.0
UncalMag,1646543355757,975084157419655,100.9794,17.2386,-60.8658,117.0393,43.061935,-74.063644
OrientationDeg,1646543355755,975084155127363,283,-15,-61
UncalGyro,1646543355765,975084165178092,-0.0259658,0.042610545,0.12903006,0.0035356998,-0.0012886205,0.004326409
UncalAccel,1646543355765,975084165178092,1.4281414,8.391078,4.931457,0.0,0.0,0.0
UncalMag,1646543355767,975084167419655,100.833,17.2508,-60.8048,117.0393,43.061935,-74.063644
OrientationDeg,1646543355765,975084165178092,283,-15,-61
UncalGyro,1646543355775,975084175228822,-0.016378429,0.0234358,0.107724786,0.0035356998,-0.0012886205,0.004326409
UncalAccel,1646543355775,975084175228822,1.4664485,8.410232,4.9266686,0.0,0.0,0.0
UncalMag,1646543355777,975084177419655,100.8086,17.263,-60.8536,117.0393,43.061935,-74.063644
OrientationDeg,1646543355775,975084175228822,283,-15,-61
UncalGyro,1646543355786,975084185279499,-0.012117374,0.014913691,0.08322372,0.0035356998,-0.0012886205,0.004326409
UncalAccel,1646543355786,975084185279499,1.4808137,8.405443,4.9123034,0.0,0.0,0.0
UncalMag,1646543355787,975084187419655,100.759796,17.336199,-60.902397,117.0393,43.061935,-74.063644
OrientationDeg,1646543355785,975084185279499,283,-15,-61
UncalGyro,1646543355796,975084195330072,-3.9947388E-4,0.014913691,0.073636346,0.0035356998,-0.0012886205,0.004326409
UncalAccel,1646543355795,975084195330072,1.4760253,8.367136,4.883573,0.0,0.0,0.0
OrientationDeg,1646543355795,975084195330072,283,-15,-61
UncalMag,1646543355797,975084197419655,100.7354,17.372799,-60.902397,117.0393,43.061935,-74.063644
UncalAccel,1646543355805,975084205380644,1.471237,8.424597,4.8644195,0.0,0.0,0.0
UncalGyro,1646543355805,975084205380644,0.017710008,0.015978955,0.064048976,0.0035356998,-0.0012886205,0.004326409
UncalMag,1646543355807,975084207419655,100.6988,17.4826,-60.939,117.0393,43.061935,-74.063644
UncalAccel,1646543355815,975084215431217,1.4425066,8.458116,4.821324,0.0,0.0,0.0
UncalGyro,1646543355816,975084215431217,0.029427908,0.014913691,0.05872266,0.0035356998,-0.0012886205,0.004326409
UncalMag,1646543355817,975084217419655,100.637794,17.5924,-60.975597,117.0393,43.061935,-74.063644
OrientationDeg,1646543355805,975084205380644,283,-15,-61
OrientationDeg,1646543355815,975084215431217,283,-15,-61
UncalAccel,1646543355825,975084225481790,1.3946224,8.448539,4.7734394,0.0,0.0,0.0
UncalGyro,1646543355825,975084225481790,0.036884755,0.005326318,0.049135286,0.0035356998,-0.0012886205,0.004326409
UncalMag,1646543355827,975084227419655,100.6012,17.6534,-60.9512,117.0393,43.061935,-74.063644
OrientationDeg,1646543355825,975084225481790,283,-15,-61
UncalGyro,1646543355836,975084235532363,0.04221107,0.0010652636,0.044874232,0.0035356998,-0.0012886205,0.004326409
UncalAccel,1646543355836,975084235532363,1.3754689,8.458116,4.7255554,0.0,0.0,0.0
OrientationDeg,1646543355835,975084235532363,282,-15,-61
UncalMag,1646543355838,975084237419655,100.479195,17.6778,-60.963398,117.0393,43.061935,-74.063644
UncalAccel,1646543355846,975084245582936,1.389834,8.47727,4.672883,0.0,0.0,0.0
UncalGyro,1646543355846,975084245582936,0.04221107,-0.003195791,0.043808967,0.0035356998,-0.0012886205,0.004326409
UncalMag,1646543355848,975084247419655,100.5036,17.7144,-60.9878,117.0393,43.061935,-74.063644
OrientationDeg,1646543355845,975084245582936,282,-15,-61
UncalGyro,1646543355855,975084255633509,0.0326237,-0.009587373,0.042743705,0.0035356998,-0.0012886205,0.004326409
UncalAccel,1646543355855,975084255633509,1.389834,8.496424,4.6154222,0.0,0.0,0.0
UncalMag,1646543355857,975084257419655,100.406,17.7388,-60.975597,117.0393,43.061935,-74.063644
OrientationDeg,1646543355855,975084255633509,282,-16,-61
UncalAccel,1646543355865,975084265684082,1.3802572,8.496424,4.56275,0.0,0.0,0.0
UncalGyro,1646543355865,975084265684082,0.023036325,-0.015978955,0.04061318,0.0035356998,-0.0012886205,0.004326409
UncalMag,1646543355867,975084267419655,100.320595,17.6656,-61.0122,117.0393,43.061935,-74.063644
OrientationDeg,1646543355865,975084265684082,282,-16,-61
UncalGyro,1646543355875,975084275734655,0.014514217,-0.034088437,0.037417386,0.0035356998,-0.0012886205,0.004326409
UncalAccel,1646543355876,975084275734655,1.3802572,8.47727,4.5100775,0.0,0.0,0.0
UncalMag,1646543355877,975084277419655,100.2596,17.6168,-60.9878,117.0393,43.061935,-74.063644
OrientationDeg,1646543355875,975084275734655,282,-16,-61
UncalGyro,1646543355886,975084285785228,0.0070573715,-0.045806337,0.031025803,0.0035356998,-0.0012886205,0.004326409
UncalAccel,1646543355885,975084285785228,1.3850456,8.467693,4.4717703,0.0,0.0,0.0
UncalMag,1646543355887,975084287419655,100.2352,17.567999,-61.0366,117.0393,43.061935,-74.063644
OrientationDeg,1646543355886,975084285785228,282,-16,-61
UncalAccel,1646543355895,975084295835801,1.4281414,8.491635,4.4478283,0.0,0.0,0.0
UncalGyro,1646543355896,975084295835801,0.002796317,-0.047936864,0.022503695,0.0035356998,-0.0012886205,0.004326409
UncalMag,1646543355897,975084297419655,100.2108,17.507,-61.0366,117.0393,43.061935,-74.063644
OrientationDeg,1646543355895,975084295835801,282,-16,-61
UncalAccel,1646543355905,975084305886374,1.4329298,8.491635,4.4143095,0.0,0.0,0.0
UncalGyro,1646543355905,975084305886374,-3.9947388E-4,-0.039414756,0.010785795,0.0035356998,-0.0012886205,0.004326409
UncalMag,1646543355908,975084307419655,100.101,17.4704,-61.1708,117.0393,43.061935,-74.063644
OrientationDeg,1646543355905,975084305886374,282,-16,-61
UncalMag,1646543355918,975084317419655,100.1132,17.4826,-61.2196,117.0393,43.061935,-74.063644
UncalAccel,1646543355916,975084315936947,1.4377182,8.491635,4.3903675,0.0,0.0,0.0
UncalGyro,1646543355915,975084315936947,-0.0046605286,-0.0234358,0.0022636852,0.0035356998,-0.0012886205,0.004326409
OrientationDeg,1646543355915,975084315936947,282,-16,-61
UncalAccel,1646543355925,975084325987519,1.423353,8.510789,4.395156,0.0,0.0,0.0
UncalGyro,1646543355926,975084325987519,-0.0067910557,-0.0117179,-0.0041278964,0.0035356998,-0.0012886205,0.004326409
UncalMag,1646543355927,975084327419655,100.015594,17.4704,-61.280598,117.0393,43.061935,-74.063644
OrientationDeg,1646543355926,975084325987519,282,-16,-61
UncalAccel,1646543355936,975084336038092,1.4329298,8.5299425,4.395156,0.0,0.0,0.0
UncalGyro,1646543355937,975084336038092,-0.005725792,-0.0010652636,-0.014780533,0.0035356998,-0.0012886205,0.004326409
UncalMag,1646543355937,975084337419655,99.9058,17.4338,-61.305,117.0393,43.061935,-74.063644
OrientationDeg,1646543355937,975084336038092,282,-16,-61
UncalAccel,1646543355946,975084346088665,1.4281414,8.534731,4.395156,0.0,0.0,0.0
UncalGyro,1646543355946,975084346088665,-0.01105211,0.003195791,-0.02223738,0.0035356998,-0.0012886205,0.004326409
UncalMag,1646543355947,975084347419655,99.918,17.5192,-61.305,117.0393,43.061935,-74.063644
OrientationDeg,1646543355947,975084346088665,282,-16,-61
UncalAccel,1646543355957,975084356139238,1.3850456,8.5538845,4.409521,0.0,0.0,0.0
UncalGyro,1646543355956,975084356139238,-0.015313165,-0.0010652636,-0.027563697,0.0035356998,-0.0012886205,0.004326409
UncalMag,1646543355957,975084357419655,99.856995,17.531399,-61.3904,117.0393,43.061935,-74.063644
OrientationDeg,1646543355956,975084356139238,282,-16,-61
UncalAccel,1646543355966,975084366189811,1.3611037,8.587403,4.4143095,0.0,0.0,0.0
UncalGyro,1646543355966,975084366189811,-0.018508956,-0.0042610546,-0.032890014,0.0035356998,-0.0012886205,0.004326409
UncalMag,1646543355967,975084367419655,99.8692,17.5802,-61.3782,117.0393,43.061935,-74.063644
UncalGyro,1646543355976,975084376240384,-0.0259658,-0.008522109,-0.032890014,0.0035356998,-0.0012886205,0.004326409
UncalAccel,1646543355976,975084376240384,1.3371617,8.606557,4.409521,0.0,0.0,0.0
UncalMag,1646543355977,975084377419655,99.8692,17.5558,-61.3416,117.0393,43.061935,-74.063644
OrientationDeg,1646543355967,975084366189811,282,-16,-61
OrientationDeg,1646543355976,975084376240384,282,-16,-61
UncalAccel,1646543355986,975084386290957,1.2940661,8.6257105,4.3999443,0.0,0.0,0.0
UncalGyro,1646543355986,975084386290957,-0.02809633,-0.0117179,-0.027563697,0.0035356998,-0.0012886205,0.004326409
UncalMag,1646543355987,975084387419655,99.844795,17.5436,-61.353798,117.0393,43.061935,-74.063644
OrientationDeg,1646543355987,975084386290957,282,-16,-61
UncalGyro,1646543355997,975084396341530,-0.03448791,-0.008522109,-0.020106852,0.0035356998,-0.0012886205,0.004326409
UncalMag,1646543355997,975084397419655,99.8692,17.5558,-61.3294,117.0393,43.061935,-74.063644
UncalAccel,1646543355996,975084396341530,1.2844892,8.654441,4.4047327,0.0,0.0,0.0
OrientationDeg,1646543355996,975084396341530,282,-16,-61
UncalGyro,1646543356006,975084406392103,-0.037683703,-0.008522109,-0.013715269,0.0035356998,-0.0012886205,0.004326409
UncalAccel,1646543356006,975084406392103,1.2797008,8.673594,4.409521,0.0,0.0,0.0
UncalMag,1646543356007,975084407419655,99.9546,17.5802,-61.365997,117.0393,43.061935,-74.063644
OrientationDeg,1646543356006,975084406392103,282,-16,-61
UncalAccel,1646543356016,975084416442676,1.3036429,8.683171,4.4238863,0.0,0.0,0.0
UncalGyro,1646543356017,975084416442676,-0.03981423,-0.0042610546,-0.0105194785,0.0035356998,-0.0012886205,0.004326409
UncalMag,1646543356017,975084417419655,100.015594,17.5924,-61.3294,117.0393,43.061935,-74.063644
OrientationDeg,1646543356017,975084416442676,282,-16,-61
UncalAccel,1646543356026,975084426493249,1.3227965,8.654441,4.4286747,0.0,0.0,0.0
UncalGyro,1646543356026,975084426493249,-0.03981423,-0.0021305273,-0.006258424,0.0035356998,-0.0012886205,0.004326409
UncalMag,1646543356028,975084427419655,99.9546,17.604599,-61.3416,117.0393,43.061935,-74.063644
OrientationDeg,1646543356026,975084426493249,282,-16,-61
UncalMag,1646543356037,975084437419655,99.979,17.6534,-61.365997,117.0393,43.061935,-74.063644
UncalGyro,1646543356036,975084436543822,-0.036618438,0.0010652636,-0.006258424,0.0035356998,-0.0012886205,0.004326409
UncalAccel,1646543356036,975084436543822,1.34195,8.6257105,4.4382515,0.0,0.0,0.0
OrientationDeg,1646543356037,975084436543822,282,-16,-61
UncalMag,1646543356047,975084447419655,99.9302,17.604599,-61.353798,117.0393,43.061935,-74.063644
UncalGyro,1646543356046,975084446594447,-0.030226856,0.0042610546,-0.009454215,0.0035356998,-0.0012886205,0.004326409
UncalAccel,1646543356046,975084446594447,1.3611037,8.592192,4.44304,0.0,0.0,0.0
OrientationDeg,1646543356046,975084446594447,283,-16,-61
UncalAccel,1646543356056,975084456645124,1.365892,8.592192,4.44304,0.0,0.0,0.0
UncalMag,1646543356057,975084457419655,99.9546,17.6534,-61.439198,117.0393,43.061935,-74.063644
UncalGyro,1646543356056,975084456645124,-0.027031064,0.008522109,-0.014780533,0.0035356998,-0.0012886205,0.004326409
OrientationDeg,1646543356057,975084456645124,283,-16,-61
UncalAccel,1646543356066,975084466695801,1.3515269,8.56825,4.4621935,0.0,0.0,0.0
UncalGyro,1646543356066,975084466695801,-0.032357384,0.012783164,-0.019041587,0.0035356998,-0.0012886205,0.004326409
UncalMag,1646543356067,975084467419655,100.0278,17.6168,-61.4148,117.0393,43.061935,-74.063644
OrientationDeg,1646543356066,975084466695801,283,-16,-61
UncalAccel,1646543356076,975084476746478,1.2988545,8.534731,4.4861355,0.0,0.0,0.0
UncalGyro,1646543356077,975084476746478,-0.033422645,0.013848428,-0.024367906,0.0035356998,-0.0012886205,0.004326409
UncalMag,1646543356078,975084477419655,100.003395,17.629,-61.4026,117.0393,43.061935,-74.063644
OrientationDeg,1646543356076,975084476746478,283,-16,-61
OrientationDeg,1646543356086,975084486797155,283,-15,-61
UncalAccel,1646543356086,975084486797155,1.2509704,8.520366,4.505289,0.0,0.0,0.0
UncalMag,1646543356087,975084487419655,99.979,17.6412,-61.3904,117.0393,43.061935,-74.063644
UncalGyro,1646543356086,975084486797155,-0.036618438,0.021305272,-0.02862896,0.0035356998,-0.0012886205,0.004326409
UncalAccel,1646543356097,975084496847832,1.2557588,8.539519,4.5196543,0.0,0.0,0.0
UncalGyro,1646543356096,975084496847832,-0.045140546,0.0234358,-0.031824753,0.0035356998,-0.0012886205,0.004326409
UncalMag,1646543356097,975084497419655,100.0278,17.6534,-61.439198,117.0393,43.061935,-74.063644
OrientationDeg,1646543356097,975084496847832,283,-15,-61
UncalGyro,1646543356106,975084506898509,-0.051532127,0.025566328,-0.03395528,0.0035356998,-0.0012886205,0.004326409
UncalMag,1646543356107,975084507419655,100.1132,17.567999,-61.451397,117.0393,43.061935,-74.063644
UncalAccel,1646543356106,975084506898509,1.2366052,8.549096,4.5340195,0.0,0.0,0.0
OrientationDeg,1646543356106,975084506898509,283,-15,-61
UncalAccel,1646543356116,975084516949186,1.2126632,8.563461,4.5675383,0.0,0.0,0.0
