NMEA,$GPGSV,3,1,11,02,23,120,28,05,47,049,36,13,61,082,42,15,69,182,33,1*6B,1646543891602
NMEA,$GPGSV,3,2,11,18,42,314,27,20,25,068,31,23,23,267,25,24,03,166,21,1*63,1646543891602
NMEA,$GPGSV,3,3,11,29,57,226,21,30,06,048,23,51,00,000,33,1*54,1646543891602
NMEA,$GPGSV,1,1,04,18,42,314,19,23,23,267,,24,03,166,,30,06,048,,8*66,1646543891602
NMEA,$GLGSV,2,1,06,70,42,029,22,86,69,337,18,87,07,327,14,85,56,141,34,1*7E,1646543891602
NMEA,$GLGSV,2,2,06,71,73,277,34,72,27,231,22,1*79,1646543891602
NMEA,$GAGSV,2,1,07,04,70,070,40,09,47,206,33,11,81,045,30,12,31,123,30,7*70,1646543891602
NMEA,$GAGSV,2,2,07,19,15,042,18,36,36,316,34,05,00,000,,7*41,1646543891602
NMEA,$GAGSV,2,1,07,04,70,070,19,11,81,045,12,12,31,123,19,05,00,000,,1*7A,1646543891602
NMEA,$GAGSV,2,2,07,09,47,206,,19,15,042,,36,36,316,,1*42,1646543891602
NMEA,$GNGSA,A,3,02,05,13,15,18,20,23,29,30,,,,1.0,0.7,0.7,1*33,1646543891617
NMEA,$GNGSA,A,3,71,72,85,86,87,,,,,,,,1.0,0.7,0.7,2*3C,1646543891617
NMEA,$GNGSA,A,3,04,09,11,12,36,,,,,,,,1.0,0.7,0.7,3*39,1646543891617
NMEA,$GNVTG,,T,,M,0.0,N,0.0,K,A*3D,1646543891617
NMEA,$GNDTM,P90,,0000.000025,S,00000.000002,E,0.982,W84*58,1646543891617
NMEA,$GNRMC,051811.00,A,3712.940844,N,08027.103066,W,0.0,,060322,8.4,W,A,V*77,1646543891617
NMEA,$GNGNS,051811.00,3712.940844,N,08027.103066,W,AAANNN,19,0.7,638.4,-31.0,,,V*17,1646543891617
NMEA,$GNGGA,051811.00,3712.940844,N,08027.103066,W,1,12,0.7,638.4,M,-31.0,M,,*43,1646543891617
NMEA,$GPGSV,3,1,11,02,23,120,29,05,47,049,31,13,61,082,42,15,69,182,29,1*66,1646543892606
NMEA,$GPGSV,3,2,11,18,42,314,28,20,25,068,30,23,23,267,26,24,03,166,21,1*6E,1646543892606
NMEA,$GPGSV,3,3,11,29,57,226,29,30,06,048,,51,00,000,32,1*5C,1646543892606
NMEA,$GPGSV,1,1,04,18,42,314,19,23,23,267,,24,03,166,,30,06,048,,8*66,1646543892606
NMEA,$GLGSV,2,1,06,70,42,029,22,86,69,337,19,87,07,327,14,85,56,141,36,1*7D,1646543892606
NMEA,$GLGSV,2,2,06,71,73,277,31,72,27,231,22,1*7C,1646543892606
NMEA,$GAGSV,2,1,07,04,70,070,37,09,47,206,32,11,81,045,27,12,31,123,28,7*7E,1646543892606
NMEA,$GAGSV,2,2,07,19,15,042,20,36,36,316,32,05,00,000,,7*4C,1646543892606
NMEA,$GAGSV,2,1,06,04,70,070,19,09,47,206,18,11,81,045,12,12,31,123,19,1*79,1646543892606
NMEA,$GAGSV,2,2,06,05,00,000,,19,15,042,,1*7C,1646543892606
NMEA,$GNGSA,A,3,02,05,13,15,18,20,23,29,30,,,,1.0,0.7,0.7,1*33,1646543892615
NMEA,$GNGSA,A,3,71,72,85,86,87,,,,,,,,1.0,0.7,0.7,2*3C,1646543892615
NMEA,$GNGSA,A,3,04,09,11,12,36,,,,,,,,1.0,0.7,0.7,3*39,1646543892615
NMEA,$GNVTG,,T,,M,0.0,N,0.0,K,A*3D,1646543892615
NMEA,$GNDTM,P90,,0000.000025,S,00000.000002,E,0.982,W84*58,1646543892615
NMEA,$GNRMC,051812.00,A,3712.940949,N,08027.103003,W,0.0,,060322,8.4,W,A,V*7B,1646543892615
NMEA,$GNGNS,051812.00,3712.940949,N,08027.103003,W,AAANNN,19,0.7,638.3,-31.0,,,V*1C,1646543892615
NMEA,$GNGGA,051812.00,3712.940949,N,08027.103003,W,1,12,0.7,638.3,M,-31.0,M,,*48,1646543892615
NMEA,$GPGSV,3,1,11,02,23,120,33,05,47,049,33,13,61,082,40,15,69,182,29,1*6D,1646543893605
NMEA,$GPGSV,3,2,11,18,42,314,28,20,25,068,32,23,23,267,26,24,03,166,21,1*6C,1646543893605
NMEA,$GPGSV,3,3,11,29,57,226,35,30,06,048,,51,00,000,36,1*55,1646543893605
NMEA,$GPGSV,1,1,04,18,42,314,21,23,23,267,,24,03,166,,30,06,048,,8*6D,1646543893605
NMEA,$GLGSV,2,1,06,70,42,029,19,86,69,337,19,87,07,327,22,85,56,141,36,1*70,1646543893605
NMEA,$GLGSV,2,2,06,71,73,277,31,72,27,231,22,1*7C,1646543893605
NMEA,$GAGSV,2,1,07,04,70,070,33,09,47,206,27,11,81,045,27,12,31,123,24,7*72,1646543893605
NMEA,$GAGSV,2,2,07,19,15,042,20,36,36,316,36,05,00,000,,7*48,1646543893605
NMEA,$GAGSV,2,1,07,04,70,070,19,09,47,206,18,11,81,045,12,12,31,123,19,1*78,1646543893605
NMEA,$GAGSV,2,2,07,05,00,000,,19,15,042,,36,36,316,,1*49,1646543893605
NMEA,$GNGSA,A,3,02,05,13,15,18,20,23,29,30,,,,1.0,0.7,0.7,1*33,1646543893617
NMEA,$GNGSA,A,3,71,72,85,86,87,,,,,,,,1.0,0.7,0.7,2*3C,1646543893617
NMEA,$GNGSA,A,3,04,09,11,12,36,,,,,,,,1.0,0.7,0.7,3*39,1646543893617
NMEA,$GNVTG,,T,,M,0.0,N,0.0,K,A*3D,1646543893617
NMEA,$GNDTM,P90,,0000.000025,S,00000.000002,E,0.982,W84*58,1646543893617
NMEA,$GNRMC,051813.00,A,3712.941250,N,08027.102868,W,0.0,,060322,8.4,W,A,V*7C,1646543893617
NMEA,$GNGNS,051813.00,3712.941250,N,08027.102868,W,AAANNN,19,0.7,638.4,-31.0,,,V*1C,1646543893617
NMEA,$GNGGA,051813.00,3712.941250,N,08027.102868,W,1,12,0.7,638.4,M,-31.0,M,,*48,1646543893617
NMEA,$GPGSV,3,1,11,02,23,120,35,05,47,049,27,13,61,082,36,15,69,182,22,1*64,1646543894602
NMEA,$GPGSV,3,2,11,18,42,314,32,20,25,068,30,23,23,267,21,24,03,166,21,1*62,1646543894602
NMEA,$GPGSV,3,3,11,29,57,226,35,30,06,048,27,51,00,000,36,1*50,1646543894602
NMEA,$GPGSV,1,1,04,18,42,314,24,23,23,267,19,24,03,166,,30,06,048,,8*60,1646543894602
NMEA,$GLGSV,2,1,06,70,42,029,19,86,69,337,19,87,07,327,25,85,56,141,32,1*73,1646543894602
NMEA,$GLGSV,2,2,06,71,73,277,27,72,27,231,18,1*72,1646543894602
NMEA,$GAGSV,2,1,07,04,70,070,31,09,47,206,31,11,81,045,27,12,31,123,21,7*72,1646543894602
NMEA,$GAGSV,2,2,07,19,15,042,18,36,36,316,33,05,00,000,,7*46,1646543894602
NMEA,$GAGSV,2,1,07,04,70,070,18,09,47,206,18,11,81,045,12,12,31,123,19,1*79,1646543894602
NMEA,$GAGSV,2,2,07,05,00,000,,19,15,042,,36,36,316,,1*49,1646543894602
NMEA,$GNGSA,A,3,02,05,13,15,18,20,23,29,30,,,,1.0,0.7,0.7,1*33,1646543894612
NMEA,$GNGSA,A,3,71,72,85,86,87,,,,,,,,1.0,0.7,0.7,2*3C,1646543894612
NMEA,$GNGSA,A,3,04,09,11,12,36,,,,,,,,1.0,0.7,0.7,3*39,1646543894612
NMEA,$GNVTG,,T,,M,0.0,N,0.0,K,A*3D,1646543894612
NMEA,$GNDTM,P90,,0000.000025,S,00000.000002,E,0.982,W84*58,1646543894612
NMEA,$GNRMC,051814.00,A,3712.941335,N,08027.102959,W,0.0,,060322,8.4,W,A,V*7A,1646543894612
NMEA,$GNGNS,051814.00,3712.941335,N,08027.102959,W,AAANNN,19,0.7,638.1,-31.0,,,V*1F,1646543894612
NMEA,$GNGGA,051814.00,3712.941335,N,08027.102959,W,1,12,0.7,638.1,M,-31.0,M,,*4B,1646543894612
NMEA,$GPGSV,3,1,11,02,23,120,35,05,47,049,27,13,61,082,36,15,69,182,24,1*62,1646543895607
NMEA,$GPGSV,3,2,11,18,42,314,34,20,25,068,27,23,23,267,24,24,03,166,21,1*67,1646543895607
NMEA,$GPGSV,3,3,11,29,57,226,35,30,06,048,26,51,00,000,34,1*53,1646543895607
NMEA,$GPGSV,1,1,04,18,42,314,23,23,23,267,19,24,03,166,,30,06,048,,8*67,1646543895607
NMEA,$GLGSV,2,1,06,70,42,029,19,86,69,337,19,87,07,327,26,85,56,141,30,1*72,1646543895607
NMEA,$GLGSV,2,2,06,71,73,277,32,72,27,231,18,1*76,1646543895607
NMEA,$GAGSV,2,1,07,04,70,070,31,09,47,206,31,11,81,045,18,12,31,123,22,7*7D,1646543895607
NMEA,$GAGSV,2,2,07,19,15,042,22,36,36,316,31,05,00,000,,7*4D,1646543895607
NMEA,$GAGSV,2,1,07,04,70,070,18,09,47,206,18,11,81,045,12,12,31,123,19,1*79,1646543895607
NMEA,$GAGSV,2,2,07,05,00,000,,19,15,042,,36,36,316,,1*49,1646543895607
NMEA,$GNGSA,A,3,02,05,13,15,18,20,23,29,30,,,,1.0,0.7,0.7,1*33,1646543895622
NMEA,$GNGSA,A,3,71,72,85,86,87,,,,,,,,1.0,0.7,0.7,2*3C,1646543895622
NMEA,$GNGSA,A,3,04,09,11,12,36,,,,,,,,1.0,0.7,0.7,3*39,1646543895622
NMEA,$GNVTG,,T,,M,0.0,N,0.0,K,A*3D,1646543895622
NMEA,$GNDTM,P90,,0000.000025,S,00000.000002,E,0.982,W84*58,1646543895622
NMEA,$GNRMC,051815.00,A,3712.941470,N,08027.102836,W,0.0,,060322,8.4,W,A,V*75,1646543895622
NMEA,$GNGNS,051815.00,3712.941470,N,08027.102836,W,AAANNN,19,0.7,638.0,-31.0,,,V*11,1646543895622
NMEA,$GNGGA,051815.00,3712.941470,N,08027.102836,W,1,12,0.7,638.0,M,-31.0,M,,*45,1646543895622
NMEA,$GPGSV,3,1,11,02,23,120,35,05,47,049,28,13,61,082,36,15,69,182,24,1*6D,1646543896604
NMEA,$GPGSV,3,2,11,18,42,314,34,20,25,068,27,23,23,267,29,24,03,166,21,1*6A,1646543896604
NMEA,$GPGSV,3,3,11,29,57,226,35,30,06,048,26,51,00,000,33,1*54,1646543896604
NMEA,$GPGSV,1,1,04,18,42,314,23,23,23,267,19,24,03,166,,30,06,048,,8*67,1646543896604
NMEA,$GLGSV,2,1,06,70,42,029,19,86,69,337,19,87,07,327,27,85,56,141,31,1*72,1646543896604
NMEA,$GLGSV,2,2,06,71,73,277,33,72,27,231,18,1*77,1646543896604
NMEA,$GAGSV,2,1,07,04,70,070,33,09,47,206,34,11,81,045,18,12,31,123,21,7*79,1646543896604
NMEA,$GAGSV,2,2,07,19,15,042,22,36,36,316,32,05,00,000,,7*4E,1646543896604
NMEA,$GAGSV,2,1,07,04,70,070,24,09,47,206,18,11,81,045,12,12,31,123,19,1*76,1646543896604
NMEA,$GAGSV,2,2,07,05,00,000,,19,15,042,,36,36,316,,1*49,1646543896604
NMEA,$GNGSA,A,3,02,05,13,15,18,20,23,29,30,,,,0.9,0.7,0.7,1*3B,1646543896613
NMEA,$GNGSA,A,3,71,72,85,86,87,,,,,,,,0.9,0.7,0.7,2*34,1646543896613
NMEA,$GNGSA,A,3,04,09,11,12,36,,,,,,,,0.9,0.7,0.7,3*31,1646543896613
NMEA,$GNVTG,,T,,M,0.0,N,0.0,K,A*3D,1646543896613
NMEA,$GNDTM,P90,,0000.000025,S,00000.000002,E,0.982,W84*58,1646543896613
NMEA,$GNRMC,051816.00,A,3712.941759,N,08027.103190,W,0.0,,060322,8.4,W,A,V*7A,1646543896613
NMEA,$GNGNS,051816.00,3712.941759,N,08027.103190,W,AAANNN,19,0.7,637.4,-31.0,,,V*15,1646543896613
NMEA,$GNGGA,051816.00,3712.941759,N,08027.103190,W,1,12,0.7,637.4,M,-31.0,M,,*41,1646543896613
NMEA,$GPGSV,3,1,11,02,23,120,35,05,47,049,24,13,61,082,36,15,69,182,21,1*64,1646543897608
NMEA,$GPGSV,3,2,11,18,42,314,34,20,25,068,26,23,23,267,28,24,03,166,21,1*6A,1646543897608
NMEA,$GPGSV,3,3,11,29,57,226,34,30,06,048,26,51,00,000,33,1*55,1646543897608
NMEA,$GPGSV,1,1,04,18,42,314,23,23,23,267,19,24,03,166,,30,06,048,,8*67,1646543897608
NMEA,$GLGSV,2,1,06,70,42,029,19,86,69,337,19,87,07,327,27,85,56,141,31,1*72,1646543897608
NMEA,$GLGSV,2,2,06,71,73,277,34,72,27,231,20,1*7B,1646543897608
NMEA,$GAGSV,2,1,07,04,70,070,34,09,47,206,34,11,81,045,20,12,31,123,21,7*75,1646543897608
NMEA,$GAGSV,2,2,07,19,15,042,21,36,36,316,32,05,00,000,,7*4D,1646543897608
NMEA,$GAGSV,2,1,07,04,70,070,25,09,47,206,18,11,81,045,12,12,31,123,19,1*77,1646543897608
NMEA,$GAGSV,2,2,07,05,00,000,,19,15,042,,36,36,316,,1*49,1646543897608
NMEA,$GNGSA,A,3,02,05,13,15,18,20,23,29,30,,,,0.9,0.7,0.7,1*3B,1646543897623
NMEA,$GNGSA,A,3,71,72,85,86,87,,,,,,,,0.9,0.7,0.7,2*34,1646543897623
NMEA,$GNGSA,A,3,04,09,11,12,36,,,,,,,,0.9,0.7,0.7,3*31,1646543897623
NMEA,$GNVTG,,T,,M,0.0,N,0.0,K,A*3D,1646543897623
NMEA,$GNDTM,P90,,0000.000025,S,00000.000002,E,0.982,W84*58,1646543897623
NMEA,$GNRMC,051817.00,A,3712.941885,N,08027.103238,W,0.0,,060322,8.4,W,A,V*74,1646543897623
NMEA,$GNGNS,051817.00,3712.941885,N,08027.103238,W,AAANNN,19,0.7,637.5,-31.0,,,V*1A,1646543897623
NMEA,$GNGGA,051817.00,3712.941885,N,08027.103238,W,1,12,0.7,637.5,M,-31.0,M,,*4E,1646543897623
NMEA,$GPGSV,3,1,11,02,23,120,35,05,47,049,25,13,61,082,36,15,69,182,21,1*65,1646543898605
NMEA,$GPGSV,3,2,11,18,42,314,34,20,25,068,26,23,23,267,28,24,03,166,21,1*6A,1646543898605
NMEA,$GPGSV,3,3,11,29,57,226,35,30,06,048,27,51,00,000,33,1*55,1646543898605
NMEA,$GPGSV,1,1,04,18,42,314,21,23,23,267,19,24,03,166,,30,06,048,,8*65,1646543898605
NMEA,$GLGSV,2,1,06,70,42,029,19,86,69,337,16,87,07,327,26,85,56,141,29,1*75,1646543898605
NMEA,$GLGSV,2,2,06,71,73,277,34,72,27,231,23,1*78,1646543898605
NMEA,$GAGSV,2,1,07,04,70,070,33,09,47,206,34,11,81,045,20,12,31,123,20,7*73,1646543898605
NMEA,$GAGSV,2,2,07,19,15,042,22,36,36,316,32,05,00,000,,7*4E,1646543898605
NMEA,$GAGSV,2,1,07,04,70,070,25,09,47,206,18,11,81,045,12,12,31,123,19,1*77,1646543898605
NMEA,$GAGSV,2,2,07,05,00,000,,19,15,042,,36,36,316,,1*49,1646543898605
NMEA,$GNGSA,A,3,02,05,13,15,18,20,23,29,30,,,,0.9,0.7,0.7,1*3B,1646543898617
NMEA,$GNGSA,A,3,71,72,85,86,87,,,,,,,,0.9,0.7,0.7,2*34,1646543898617
NMEA,$GNGSA,A,3,04,09,11,12,36,,,,,,,,0.9,0.7,0.7,3*31,1646543898617
NMEA,$GNVTG,,T,,M,0.0,N,0.0,K,A*3D,1646543898617
NMEA,$GNDTM,P90,,0000.000025,S,00000.000002,E,0.982,W84*58,1646543898617
NMEA,$GNRMC,051818.00,A,3712.942196,N,08027.103339,W,0.0,,060322,8.4,W,A,V*73,1646543898617
NMEA,$GNGNS,051818.00,3712.942196,N,08027.103339,W,AAANNN,19,0.7,637.0,-31.0,,,V*18,1646543898617
NMEA,$GNGGA,051818.00,3712.942196,N,08027.103339,W,1,12,0.7,637.0,M,-31.0,M,,*4C,1646543898617
NMEA,$GPGSV,3,1,11,02,23,120,35,05,47,049,23,13,61,082,36,15,69,182,21,1*63,1646543899603
NMEA,$GPGSV,3,2,11,18,42,314,34,20,25,068,25,23,23,267,27,24,03,166,21,1*66,1646543899603
NMEA,$GPGSV,3,3,11,29,57,226,34,30,06,048,26,51,00,000,33,1*55,1646543899603
NMEA,$GPGSV,1,1,04,18,42,314,21,23,23,267,19,24,03,166,,30,06,048,,8*65,1646543899603
NMEA,$GLGSV,2,1,06,70,42,029,19,86,69,337,16,87,07,327,27,85,56,141,29,1*74,1646543899603
NMEA,$GLGSV,2,2,06,71,73,277,35,72,27,231,23,1*79,1646543899603
NMEA,$GAGSV,2,1,07,04,70,070,33,09,47,206,34,11,81,045,21,12,31,123,20,7*72,1646543899603
NMEA,$GAGSV,2,2,07,19,15,042,23,36,36,316,33,05,00,000,,7*4E,1646543899603
NMEA,$GAGSV,2,1,07,04,70,070,24,09,47,206,18,11,81,045,12,12,31,123,19,1*76,1646543899603
NMEA,$GAGSV,2,2,07,05,00,000,,19,15,042,,36,36,316,,1*49,1646543899603
NMEA,$GNGSA,A,3,02,05,13,15,18,20,23,29,30,,,,0.9,0.7,0.7,1*3B,1646543899613
NMEA,$GNGSA,A,3,71,72,85,86,87,,,,,,,,0.9,0.7,0.7,2*34,1646543899613
NMEA,$GNGSA,A,3,04,09,11,12,36,,,,,,,,0.9,0.7,0.7,3*31,1646543899613
NMEA,$GNVTG,,T,,M,0.0,N,0.0,K,A*3D,1646543899613
NMEA,$GNDTM,P90,,0000.000025,S,00000.000002,E,0.982,W84*58,1646543899613
NMEA,$GNRMC,051819.00,A,3712.942500,N,08027.103313,W,0.0,,060322,8.4,W,A,V*71,1646543899613
NMEA,$GNGNS,051819.00,3712.942500,N,08027.103313,W,AAANNN,19,0.7,636.3,-31.0,,,V*18,1646543899613
NMEA,$GNGGA,051819.00,3712.942500,N,08027.103313,W,1,12,0.7,636.3,M,-31.0,M,,*4C,1646543899613
NMEA,$GPGSV,3,1,11,02,23,120,35,05,47,049,24,13,61,082,36,15,69,182,21,1*64,1646543900604
NMEA,$GPGSV,3,2,11,18,42,314,34,20,25,068,25,23,23,267,27,24,03,166,21,1*66,1646543900604
NMEA,$GPGSV,3,3,11,29,57,226,34,30,06,048,27,51,00,000,33,1*54,1646543900604
NMEA,$GPGSV,1,1,04,18,42,314,20,23,23,267,19,24,03,166,,30,06,048,,8*64,1646543900604
NMEA,$GLGSV,2,1,06,70,42,029,19,86,69,337,16,87,07,327,28,85,56,141,30,1*73,1646543900604
NMEA,$GLGSV,2,2,06,71,73,277,34,72,27,231,22,1*79,1646543900604
NMEA,$GAGSV,2,1,07,04,70,070,33,09,47,206,33,11,81,045,21,12,31,123,21,7*74,1646543900604
NMEA,$GAGSV,2,2,07,19,15,042,23,36,36,316,32,05,00,000,,7*4F,1646543900604
NMEA,$GAGSV,2,1,07,04,70,070,25,09,47,206,18,11,81,045,12,12,31,123,19,1*77,1646543900604
NMEA,$GAGSV,2,2,07,05,00,000,,19,15,042,,36,36,316,,1*49,1646543900604
NMEA,$GNGSA,A,3,02,05,13,15,18,20,23,29,30,,,,0.9,0.7,0.7,1*3B,1646543900618
NMEA,$GNGSA,A,3,71,72,85,86,87,,,,,,,,0.9,0.7,0.7,2*34,1646543900618
NMEA,$GNGSA,A,3,04,09,11,12,36,,,,,,,,0.9,0.7,0.7,3*31,1646543900618
NMEA,$GNVTG,,T,,M,0.0,N,0.0,K,A*3D,1646543900618
NMEA,$GNDTM,P90,,0000.000025,S,00000.000002,E,0.982,W84*58,1646543900618
NMEA,$GNRMC,051820.00,A,3712.942576,N,08027.103354,W,0.0,,060322,8.4,W,A,V*79,1646543900618
NMEA,$GNGNS,051820.00,3712.942576,N,08027.103354,W,AAANNN,19,0.7,635.9,-31.0,,,V*19,1646543900618
NMEA,$GNGGA,051820.00,3712.942576,N,08027.103354,W,1,12,0.7,635.9,M,-31.0,M,,*4D,1646543900618
NMEA,$GPGSV,3,1,11,02,23,120,34,05,47,049,23,13,61,082,36,15,69,182,21,1*62,1646543901598
NMEA,$GPGSV,3,2,11,18,42,314,34,20,25,068,26,23,23,267,28,24,03,166,21,1*6A,1646543901598
NMEA,$GPGSV,3,3,11,29,57,226,35,30,06,048,27,51,00,000,33,1*55,1646543901598
NMEA,$GPGSV,1,1,04,18,42,314,22,23,23,267,20,24,03,166,,30,06,048,,8*6C,1646543901598
NMEA,$GLGSV,2,1,06,70,42,029,19,86,69,337,16,87,07,327,27,85,56,141,30,1*7C,1646543901598
NMEA,$GLGSV,2,2,06,71,73,277,34,72,27,231,23,1*78,1646543901598
NMEA,$GAGSV,2,1,07,04,70,070,33,09,47,206,33,11,81,045,21,12,31,123,22,7*77,1646543901598
NMEA,$GAGSV,2,2,07,19,15,042,23,36,36,316,32,05,00,000,,7*4F,1646543901598
NMEA,$GAGSV,2,1,07,04,70,070,24,09,47,206,18,11,81,045,12,12,31,123,19,1*76,1646543901598
NMEA,$GAGSV,2,2,07,05,00,000,,19,15,042,,36,36,316,,1*49,1646543901598
NMEA,$GNGSA,A,3,02,05,13,15,18,20,23,29,30,,,,0.9,0.7,0.7,1*3B,1646543901607
NMEA,$GNGSA,A,3,71,72,85,86,87,,,,,,,,0.9,0.7,0.7,2*34,1646543901607
NMEA,$GNGSA,A,3,04,09,11,12,36,,,,,,,,0.9,0.7,0.7,3*31,1646543901607
NMEA,$GNVTG,,T,,M,0.0,N,0.0,K,A*3D,1646543901607
NMEA,$GNDTM,P90,,0000.000025,S,00000.000002,E,0.982,W84*58,1646543901607
NMEA,$GNRMC,051821.00,A,3712.942773,N,08027.103189,W,0.0,,060322,8.4,W,A,V*7D,1646543901607
NMEA,$GNGNS,051821.00,3712.942773,N,08027.103189,W,AAANNN,19,0.7,635.7,-31.0,,,V*13,1646543901607
NMEA,$GNGGA,051821.00,3712.942773,N,08027.103189,W,1,12,0.7,635.7,M,-31.0,M,,*47,1646543901607
NMEA,$GPGSV,3,1,11,02,23,120,32,05,47,049,23,13,61,082,34,15,69,182,21,1*66,1646543902603
NMEA,$GPGSV,3,2,11,18,42,314,33,20,25,068,24,23,23,267,27,24,03,166,21,1*60,1646543902603
NMEA,$GPGSV,3,3,11,29,57,226,34,30,06,048,23,51,00,000,33,1*50,1646543902603
NMEA,$GPGSV,1,1,04,18,42,314,22,23,23,267,20,24,03,166,,30,06,048,,8*6C,1646543902603
NMEA,$GLGSV,2,1,06,70,42,029,19,86,69,337,16,87,07,327,27,85,56,141,30,1*7C,1646543902603
NMEA,$GLGSV,2,2,06,71,73,277,33,72,27,231,23,1*7F,1646543902603
NMEA,$GAGSV,2,1,07,04,70,070,32,09,47,206,32,11,81,045,18,12,31,123,22,7*7D,1646543902603
NMEA,$GAGSV,2,2,07,19,15,042,19,36,36,316,30,05,00,000,,7*44,1646543902603
NMEA,$GAGSV,2,1,07,04,70,070,22,09,47,206,18,11,81,045,12,12,31,123,19,1*70,1646543902603
NMEA,$GAGSV,2,2,07,05,00,000,,19,15,042,,36,36,316,,1*49,1646543902603
NMEA,$GNGSA,A,3,02,05,13,15,18,20,23,29,30,,,,0.9,0.7,0.7,1*3B,1646543902617
NMEA,$GNGSA,A,3,71,72,85,86,87,,,,,,,,0.9,0.7,0.7,2*34,1646543902617
NMEA,$GNGSA,A,3,04,09,11,12,36,,,,,,,,0.9,0.7,0.7,3*31,1646543902617
NMEA,$GNVTG,,T,,M,0.0,N,0.0,K,A*3D,1646543902617
NMEA,$GNDTM,P90,,0000.000025,S,00000.000002,E,0.982,W84*58,1646543902617
NMEA,$GNRMC,051822.00,A,3712.942943,N,08027.103073,W,0.0,,060322,8.4,W,A,V*77,1646543902617
NMEA,$GNGNS,051822.00,3712.942943,N,08027.103073,W,AAANNN,19,0.7,634.8,-31.0,,,V*17,1646543902617
NMEA,$GNGGA,051822.00,3712.942943,N,08027.103073,W,1,12,0.7,634.8,M,-31.0,M,,*43,1646543902617
NMEA,$GPGSV,3,1,11,02,23,120,34,05,47,049,22,13,61,082,37,15,69,182,21,1*62,1646543903603
NMEA,$GPGSV,3,2,11,18,42,314,34,20,25,068,26,23,23,267,29,24,03,166,21,1*6B,1646543903603
NMEA,$GPGSV,3,3,11,29,57,226,36,30,06,048,26,51,00,000,33,1*57,1646543903603
NMEA,$GPGSV,1,1,03,18,42,314,20,23,23,267,20,24,03,166,,8*50,1646543903603
NMEA,$GLGSV,2,1,06,70,42,029,19,86,69,337,16,87,07,327,27,85,56,141,31,1*7D,1646543903603
NMEA,$GLGSV,2,2,06,71,73,277,32,72,27,231,22,1*7F,1646543903603
NMEA,$GAGSV,2,1,07,04,70,070,33,09,47,206,33,11,81,045,22,12,31,123,20,7*76,1646543903603
NMEA,$GAGSV,2,2,07,19,15,042,22,36,36,316,31,05,00,000,,7*4D,1646543903603
NMEA,$GAGSV,2,1,07,04,70,070,24,09,47,206,18,11,81,045,12,12,31,123,19,1*76,1646543903603
NMEA,$GAGSV,2,2,07,05,00,000,,19,15,042,,36,36,316,,1*49,1646543903603
NMEA,$GNGSA,A,3,02,05,13,15,18,20,23,29,30,,,,0.9,0.7,0.7,1*3B,1646543903612
NMEA,$GNGSA,A,3,71,72,85,86,87,,,,,,,,0.9,0.7,0.7,2*34,1646543903612
NMEA,$GNGSA,A,3,04,09,11,12,36,,,,,,,,0.9,0.7,0.7,3*31,1646543903612
NMEA,$GNVTG,,T,,M,0.0,N,0.0,K,A*3D,1646543903612
NMEA,$GNDTM,P90,,0000.000025,S,00000.000002,E,0.982,W84*58,1646543903612
NMEA,$GNRMC,051823.00,A,3712.942925,N,08027.102910,W,0.0,,060322,8.4,W,A,V*7B,1646543903612
NMEA,$GNGNS,051823.00,3712.942925,N,08027.102910,W,AAANNN,19,0.7,634.2,-31.0,,,V*11,1646543903612
NMEA,$GNGGA,051823.00,3712.942925,N,08027.102910,W,1,12,0.7,634.2,M,-31.0,M,,*45,1646543903612
NMEA,$GPGSV,3,1,11,02,23,120,34,05,47,049,22,13,61,082,36,15,69,182,24,1*66,1646543904604
NMEA,$GPGSV,3,2,11,18,42,314,34,20,25,068,25,23,23,267,28,24,03,166,21,1*69,1646543904604
NMEA,$GPGSV,3,3,11,29,57,226,35,30,06,048,25,51,00,000,33,1*57,1646543904604
NMEA,$GPGSV,1,1,03,18,42,314,22,23,23,267,20,30,06,048,,8*5F,1646543904604
NMEA,$GLGSV,2,1,06,70,42,029,14,86,69,337,16,87,07,327,26,85,56,141,30,1*70,1646543904604
NMEA,$GLGSV,2,2,06,71,73,277,32,72,27,231,24,1*79,1646543904604
NMEA,$GAGSV,2,1,07,04,70,070,33,09,47,206,33,11,81,045,21,12,31,123,22,7*77,1646543904604
NMEA,$GAGSV,2,2,07,19,15,042,23,36,36,316,31,05,00,000,,7*4C,1646543904604
NMEA,$GAGSV,2,1,06,04,70,070,24,09,47,206,18,12,31,123,19,05,00,000,,1*79,1646543904604
NMEA,$GAGSV,2,2,06,19,15,042,,36,36,316,,1*7D,1646543904604
NMEA,$GNGSA,A,3,02,05,13,15,18,20,23,29,30,,,,1.0,0.7,0.7,1*33,1646543904618
NMEA,$GNGSA,A,3,71,72,85,87,,,,,,,,,1.0,0.7,0.7,2*32,1646543904618
NMEA,$GNGSA,A,3,04,09,11,12,36,,,,,,,,1.0,0.7,0.7,3*39,1646543904618
NMEA,$GNVTG,,T,,M,0.0,N,0.0,K,A*3D,1646543904618
NMEA,$GNDTM,P90,,0000.000025,S,00000.000002,E,0.982,W84*58,1646543904618
NMEA,$GNRMC,051824.00,A,3712.942739,N,08027.102635,W,0.0,,060322,8.4,W,A,V*77,1646543904618
NMEA,$GNGNS,051824.00,3712.942739,N,08027.102635,W,AAANNN,18,0.7,633.9,-31.0,,,V*10,1646543904618
NMEA,$GNGGA,051824.00,3712.942739,N,08027.102635,W,1,12,0.7,633.9,M,-31.0,M,,*45,1646543904618
NMEA,$GPGSV,3,1,11,02,23,120,34,05,47,049,22,13,61,082,36,15,69,182,22,1*60,1646543905608
NMEA,$GPGSV,3,2,11,18,42,314,34,20,25,068,24,23,23,267,28,24,03,166,21,1*68,1646543905608
NMEA,$GPGSV,3,3,11,29,57,226,36,30,06,048,25,51,00,000,33,1*54,1646543905608
NMEA,$GPGSV,1,1,04,18,42,314,23,23,23,267,19,24,03,166,,30,06,048,,8*67,1646543905608
NMEA,$GLGSV,2,1,06,70,42,029,14,86,69,337,16,87,07,327,27,85,56,141,30,1*71,1646543905608
NMEA,$GLGSV,2,2,06,71,73,277,34,72,27,231,25,1*7E,1646543905608
NMEA,$GAGSV,2,1,07,04,70,070,33,09,47,206,32,11,81,045,22,12,31,123,23,7*74,1646543905608
NMEA,$GAGSV,2,2,07,19,15,042,22,36,36,316,31,05,00,000,,7*4D,1646543905608
NMEA,$GAGSV,2,1,06,04,70,070,24,09,47,206,18,05,00,000,,11,81,045,,1*78,1646543905608
NMEA,$GAGSV,2,2,06,19,15,042,,36,36,316,,1*7D,1646543905608
NMEA,$GNGSA,A,3,02,05,13,15,18,20,23,29,30,,,,1.0,0.7,0.7,1*33,1646543905619
NMEA,$GNGSA,A,3,71,72,85,87,,,,,,,,,1.0,0.7,0.7,2*32,1646543905619
NMEA,$GNGSA,A,3,04,09,11,12,36,,,,,,,,1.0,0.7,0.7,3*39,1646543905619
NMEA,$GNVTG,,T,,M,0.0,N,0.0,K,A*3D,1646543905619
NMEA,$GNDTM,P90,,0000.000025,S,00000.000002,E,0.982,W84*58,1646543905619
NMEA,$GNRMC,051825.00,A,3712.942622,N,08027.102610,W,0.0,,060322,8.4,W,A,V*7A,1646543905619
NMEA,$GNGNS,051825.00,3712.942622,N,08027.102610,W,AAANNN,18,0.7,633.7,-31.0,,,V*13,1646543905619
NMEA,$GNGGA,051825.00,3712.942622,N,08027.102610,W,1,12,0.7,633.7,M,-31.0,M,,*46,1646543905619
NMEA,$GPGSV,3,1,11,02,23,120,33,05,47,049,21,13,61,082,36,15,69,182,22,1*64,1646543906606
NMEA,$GPGSV,3,2,11,18,42,314,31,20,25,068,24,23,23,267,29,24,03,166,21,1*6C,1646543906606
NMEA,$GPGSV,3,3,11,29,57,226,36,30,06,048,24,51,00,000,33,1*55,1646543906606
NMEA,$GPGSV,1,1,04,18,42,314,23,23,23,267,19,24,03,166,,30,06,048,,8*67,1646543906606
NMEA,$GLGSV,2,1,06,70,42,029,14,86,69,337,16,87,07,327,27,85,56,141,31,1*70,1646543906606
NMEA,$GLGSV,2,2,06,71,73,277,32,72,27,231,23,1*7E,1646543906606
NMEA,$GAGSV,2,1,07,04,70,070,33,09,47,206,33,11,81,045,22,12,31,123,27,7*71,1646543906606
NMEA,$GAGSV,2,2,07,19,15,042,22,36,36,316,33,05,00,000,,7*4F,1646543906606
NMEA,$GAGSV,2,1,06,04,70,070,25,09,47,206,18,11,81,045,,12,31,123,,1*7D,1646543906606
NMEA,$GAGSV,2,2,06,19,15,042,,36,36,316,,1*7D,1646543906606
NMEA,$GNGSA,A,3,02,05,13,15,18,20,23,29,30,,,,1.0,0.7,0.7,1*33,1646543906618
NMEA,$GNGSA,A,3,71,72,85,87,,,,,,,,,1.0,0.7,0.7,2*32,1646543906618
NMEA,$GNGSA,A,3,04,09,11,12,36,,,,,,,,1.0,0.7,0.7,3*39,1646543906618
NMEA,$GNVTG,,T,,M,0.0,N,0.0,K,A*3D,1646543906618
NMEA,$GNDTM,P90,,0000.000025,S,00000.000002,E,0.982,W84*58,1646543906618
NMEA,$GNRMC,051826.00,A,3712.942585,N,08027.102652,W,0.0,,060322,8.4,W,A,V*71,1646543906618
NMEA,$GNGNS,051826.00,3712.942585,N,08027.102652,W,AAANNN,18,0.7,633.2,-31.0,,,V*1D,1646543906618
NMEA,$GNGGA,051826.00,3712.942585,N,08027.102652,W,1,12,0.7,633.2,M,-31.0,M,,*48,1646543906618
NMEA,$GPGSV,3,1,11,02,23,120,35,05,47,049,25,13,61,082,36,15,69,182,26,1*62,1646543907600
NMEA,$GPGSV,3,2,11,18,42,314,30,20,25,068,24,23,23,267,24,24,03,166,21,1*60,1646543907600
NMEA,$GPGSV,3,3,11,29,57,226,35,30,06,048,25,51,00,000,33,1*57,1646543907600
NMEA,$GPGSV,1,1,04,18,42,314,21,23,23,267,21,24,03,166,,30,06,048,,8*6E,1646543907600
NMEA,$GLGSV,2,1,06,70,42,029,14,86,69,337,16,87,07,327,22,85,56,141,32,1*76,1646543907600
NMEA,$GLGSV,2,2,06,71,73,277,29,72,27,231,28,1*7F,1646543907600
NMEA,$GAGSV,2,1,07,04,70,070,33,09,47,206,33,11,81,045,25,12,31,123,29,7*78,1646543907600
NMEA,$GAGSV,2,2,07,19,15,042,22,36,36,316,30,05,00,000,,7*4C,1646543907600
NMEA,$GAGSV,2,1,07,04,70,070,26,09,47,206,18,05,00,000,,11,81,045,,1*7B,1646543907600
NMEA,$GAGSV,2,2,07,12,31,123,,19,15,042,,36,36,316,,1*4D,1646543907600
NMEA,$GNGSA,A,3,02,05,13,15,18,20,23,29,30,,,,1.0,0.7,0.7,1*33,1646543907611
NMEA,$GNGSA,A,3,71,72,85,87,,,,,,,,,1.0,0.7,0.7,2*32,1646543907611
NMEA,$GNGSA,A,3,04,09,11,12,36,,,,,,,,1.0,0.7,0.7,3*39,1646543907611
NMEA,$GNVTG,,T,,M,0.0,N,0.0,K,A*3D,1646543907611
NMEA,$GNDTM,P90,,0000.000025,S,00000.000002,E,0.982,W84*58,1646543907611
NMEA,$GNRMC,051827.00,A,3712.942565,N,08027.102475,W,0.0,,060322,8.4,W,A,V*79,1646543907611
NMEA,$GNGNS,051827.00,3712.942565,N,08027.102475,W,AAANNN,18,0.7,633.1,-31.0,,,V*16,1646543907611
NMEA,$GNGGA,051827.00,3712.942565,N,08027.102475,W,1,12,0.7,633.1,M,-31.0,M,,*43,1646543907611
NMEA,$GPGSV,3,1,11,02,23,120,34,05,47,049,29,13,61,082,35,15,69,182,28,1*62,1646543908610
NMEA,$GPGSV,3,2,11,18,42,314,31,20,25,068,20,23,23,267,25,29,57,226,34,1*6B,1646543908610
NMEA,$GPGSV,3,3,11,30,06,048,23,24,03,166,,51,00,000,33,1*5C,1646543908610
NMEA,$GPGSV,1,1,04,18,42,314,21,23,23,267,21,24,03,166,,30,06,048,,8*6E,1646543908610
NMEA,$GLGSV,2,1,06,70,42,029,14,86,69,337,16,87,07,327,24,85,56,141,32,1*70,1646543908610
NMEA,$GLGSV,2,2,06,71,73,277,33,72,27,231,28,1*74,1646543908610
NMEA,$GAGSV,2,1,07,04,70,070,34,09,47,206,32,11,81,045,25,12,31,123,25,7*72,1646543908610
NMEA,$GAGSV,2,2,07,19,15,042,24,36,36,316,27,05,00,000,,7*4C,1646543908610
NMEA,$GAGSV,2,1,07,04,70,070,26,09,47,206,18,05,00,000,,11,81,045,,1*7B,1646543908610
NMEA,$GAGSV,2,2,07,12,31,123,,19,15,042,,36,36,316,,1*4D,1646543908610
NMEA,$GNGSA,A,3,02,05,13,15,18,20,23,29,30,,,,1.0,0.7,0.7,1*33,1646543908621
NMEA,$GNGSA,A,3,71,72,85,87,,,,,,,,,1.0,0.7,0.7,2*32,1646543908621
NMEA,$GNGSA,A,3,04,09,11,12,36,,,,,,,,1.0,0.7,0.7,3*39,1646543908621
NMEA,$GNVTG,,T,,M,0.0,N,0.0,K,A*3D,1646543908621
NMEA,$GNDTM,P90,,0000.000025,S,00000.000002,E,0.982,W84*58,1646543908621
NMEA,$GNRMC,051828.00,A,3712.942546,N,08027.102743,W,0.0,,060322,8.4,W,A,V*71,1646543908621
NMEA,$GNGNS,051828.00,3712.942546,N,08027.102743,W,AAANNN,18,0.7,633.3,-31.0,,,V*1C,1646543908621
NMEA,$GNGGA,051828.00,3712.942546,N,08027.102743,W,1,12,0.7,633.3,M,-31.0,M,,*49,1646543908621
NMEA,$GPGSV,3,1,11,02,23,120,33,05,47,049,37,13,61,082,34,15,69,182,36,1*64,1646543909605
NMEA,$GPGSV,3,2,11,18,42,314,28,20,25,068,29,23,23,267,24,29,57,226,27,1*69,1646543909605
NMEA,$GPGSV,3,3,11,30,06,048,23,24,03,166,,51,00,000,33,1*5C,1646543909605
NMEA,$GPGSV,1,1,04,18,42,314,21,23,23,267,21,24,03,166,,30,06,048,,8*6E,1646543909605
NMEA,$GLGSV,2,1,06,70,42,029,14,86,69,337,16,87,07,327,24,85,56,141,36,1*74,1646543909605
NMEA,$GLGSV,2,2,06,71,73,277,38,72,27,231,28,1*7F,1646543909605
NMEA,$GAGSV,2,1,07,04,70,070,33,09,47,206,28,11,81,045,28,12,31,123,26,7*70,1646543909605
NMEA,$GAGSV,2,2,07,19,15,042,24,36,36,316,23,05,00,000,,7*48,1646543909605
NMEA,$GAGSV,2,1,07,04,70,070,26,09,47,206,18,05,00,000,,11,81,045,,1*7B,1646543909605
NMEA,$GAGSV,2,2,07,12,31,123,,19,15,042,,36,36,316,,1*4D,1646543909605
NMEA,$GNGSA,A,3,02,05,13,15,18,20,23,29,30,,,,1.0,0.7,0.7,1*33,1646543909615
NMEA,$GNGSA,A,3,71,72,85,87,,,,,,,,,1.0,0.7,0.7,2*32,1646543909615
NMEA,$GNGSA,A,3,04,09,11,12,36,,,,,,,,1.0,0.7,0.7,3*39,1646543909615
NMEA,$GNVTG,,T,,M,0.0,N,0.0,K,A*3D,1646543909615
NMEA,$GNDTM,P90,,0000.000025,S,00000.000002,E,0.982,W84*58,1646543909615
NMEA,$GNRMC,051829.00,A,3712.942434,N,08027.102979,W,0.0,,060322,8.4,W,A,V*73,1646543909615
NMEA,$GNGNS,051829.00,3712.942434,N,08027.102979,W,AAANNN,18,0.7,633.7,-31.0,,,V*1A,1646543909615
NMEA,$GNGGA,051829.00,3712.942434,N,08027.102979,W,1,12,0.7,633.7,M,-31.0,M,,*4F,1646543909615
NMEA,$GPGSV,3,1,11,02,23,120,33,05,47,049,36,13,61,082,36,15,69,182,33,1*62,1646543910605
NMEA,$GPGSV,3,2,11,18,42,314,27,20,25,068,29,23,23,267,25,24,03,166,23,1*68,1646543910605
NMEA,$GPGSV,3,3,11,29,57,226,25,30,06,048,23,51,00,000,33,1*50,1646543910605
NMEA,$GPGSV,1,1,04,18,42,314,21,23,23,267,21,24,03,166,,30,06,048,,8*6E,1646543910605
NMEA,$GLGSV,2,1,06,70,42,029,14,86,69,337,17,87,07,327,20,85,56,141,35,1*72,1646543910605
NMEA,$GLGSV,2,2,06,71,73,277,37,72,27,231,28,1*70,1646543910605
NMEA,$GAGSV,2,1,07,04,70,070,35,09,47,206,26,11,81,045,27,12,31,123,25,7*74,1646543910605
NMEA,$GAGSV,2,2,07,19,15,042,24,36,36,316,23,05,00,000,,7*48,1646543910605
NMEA,$GAGSV,2,1,07,04,70,070,23,09,47,206,18,11,81,045,18,05,00,000,,1*77,1646543910605
NMEA,$GAGSV,2,2,07,12,31,123,,19,15,042,,36,36,316,,1*4D,1646543910605
NMEA,$GNGSA,A,3,02,05,13,15,18,20,23,29,30,,,,0.9,0.7,0.7,1*3B,1646543910616
NMEA,$GNGSA,A,3,71,72,85,86,87,,,,,,,,0.9,0.7,0.7,2*34,1646543910616
NMEA,$GNGSA,A,3,04,09,11,12,36,,,,,,,,0.9,0.7,0.7,3*31,1646543910616
NMEA,$GNVTG,,T,,M,0.0,N,0.0,K,A*3D,1646543910616
NMEA,$GNDTM,P90,,0000.000025,S,00000.000002,E,0.982,W84*58,1646543910616
NMEA,$GNRMC,051830.00,A,3712.942627,N,08027.103242,W,0.0,,060322,8.4,W,A,V*79,1646543910616
NMEA,$GNGNS,051830.00,3712.942627,N,08027.103242,W,AAANNN,19,0.7,633.9,-31.0,,,V*1F,1646543910616
NMEA,$GNGGA,051830.00,3712.942627,N,08027.103242,W,1,12,0.7,633.9,M,-31.0,M,,*4B,1646543910616
NMEA,$GPGSV,3,1,11,02,23,120,34,05,47,049,37,13,61,082,35,15,69,182,34,1*60,1646543911605
NMEA,$GPGSV,3,2,11,18,42,314,28,20,25,068,28,23,23,267,25,24,03,166,26,1*63,1646543911605
NMEA,$GPGSV,3,3,11,29,57,226,25,30,06,048,20,51,00,000,33,1*53,1646543911605
NMEA,$GPGSV,1,1,04,18,42,314,21,23,23,267,21,24,03,166,,30,06,048,,8*6E,1646543911605
NMEA,$GLGSV,2,1,06,70,42,029,14,86,69,337,17,87,07,327,22,85,56,141,35,1*70,1646543911605
NMEA,$GLGSV,2,2,06,71,73,277,37,72,27,231,28,1*70,1646543911605
NMEA,$GAGSV,2,1,07,04,70,070,33,09,47,206,28,11,81,045,26,12,31,123,24,7*7C,1646543911605
NMEA,$GAGSV,2,2,07,19,15,042,24,36,36,316,20,05,00,000,,7*4B,1646543911605
NMEA,$GAGSV,2,1,07,04,70,070,26,09,47,206,18,11,81,045,18,05,00,000,,1*72,1646543911605
NMEA,$GAGSV,2,2,07,12,31,123,,19,15,042,,36,36,316,,1*4D,1646543911605
NMEA,$GNGSA,A,3,02,05,13,15,18,20,23,29,30,,,,0.9,0.7,0.7,1*3B,1646543911616
NMEA,$GNGSA,A,3,71,72,85,86,87,,,,,,,,0.9,0.7,0.7,2*34,1646543911616
NMEA,$GNGSA,A,3,04,09,11,12,36,,,,,,,,0.9,0.7,0.7,3*31,1646543911616
NMEA,$GNVTG,,T,,M,0.0,N,0.0,K,A*3D,1646543911616
NMEA,$GNDTM,P90,,0000.000025,S,00000.000002,E,0.982,W84*58,1646543911616
NMEA,$GNRMC,051831.00,A,3712.942909,N,08027.103407,W,0.0,,060322,8.4,W,A,V*7C,1646543911616
NMEA,$GNGNS,051831.00,3712.942909,N,08027.103407,W,AAANNN,19,0.7,634.1,-31.0,,,V*15,1646543911616
NMEA,$GNGGA,051831.00,3712.942909,N,08027.103407,W,1,12,0.7,634.1,M,-31.0,M,,*41,1646543911616
NMEA,$GPGSV,3,1,11,02,23,120,34,05,47,049,34,13,61,082,36,15,69,182,32,1*66,1646543912608
NMEA,$GPGSV,3,2,11,18,42,314,25,20,25,068,28,23,23,267,24,24,03,166,24,1*6D,1646543912608
NMEA,$GPGSV,3,3,11,29,57,226,25,30,06,048,20,51,00,000,33,1*53,1646543912608
NMEA,$GPGSV,1,1,04,18,42,314,21,23,23,267,21,24,03,166,,30,06,048,,8*6E,1646543912608
NMEA,$GLGSV,2,1,06,70,42,029,14,86,69,337,17,87,07,327,22,85,56,141,33,1*76,1646543912608
NMEA,$GLGSV,2,2,06,71,73,277,37,72,27,231,24,1*7C,1646543912608
NMEA,$GAGSV,2,1,07,04,70,070,33,09,47,206,28,11,81,045,24,12,31,123,22,7*78,1646543912608
NMEA,$GAGSV,2,2,07,19,15,042,24,36,36,316,25,05,00,000,,7*4E,1646543912608
NMEA,$GAGSV,2,1,07,04,70,070,24,09,47,206,18,11,81,045,18,05,00,000,,1*70,1646543912608
NMEA,$GAGSV,2,2,07,12,31,123,,19,15,042,,36,36,316,,1*4D,1646543912608
NMEA,$GNGSA,A,3,02,05,13,15,18,20,23,29,30,,,,0.9,0.7,0.7,1*3B,1646543912618
NMEA,$GNGSA,A,3,71,72,85,86,87,,,,,,,,0.9,0.7,0.7,2*34,1646543912618
NMEA,$GNGSA,A,3,04,09,11,12,36,,,,,,,,0.9,0.7,0.7,3*31,1646543912618
NMEA,$GNVTG,,T,,M,0.0,N,0.0,K,A*3D,1646543912618
NMEA,$GNDTM,P90,,0000.000025,S,00000.000002,E,0.982,W84*58,1646543912618
NMEA,$GNRMC,051832.00,A,3712.943125,N,08027.103582,W,0.0,,060322,8.4,W,A,V*74,1646543912618
NMEA,$GNGNS,051832.00,3712.943125,N,08027.103582,W,AAANNN,19,0.7,634.1,-31.0,,,V*1D,1646543912618
NMEA,$GNGGA,051832.00,3712.943125,N,08027.103582,W,1,12,0.7,634.1,M,-31.0,M,,*49,1646543912618
NMEA,$GPGSV,3,1,11,02,23,120,34,05,47,049,34,13,61,082,36,15,69,182,32,1*66,1646543913609
NMEA,$GPGSV,3,2,11,18,42,314,21,20,25,068,29,23,23,267,25,24,03,166,26,1*6B,1646543913609
NMEA,$GPGSV,3,3,11,29,57,226,19,30,06,048,20,51,00,000,33,1*5C,1646543913609
NMEA,$GPGSV,1,1,04,18,42,314,21,23,23,267,21,24,03,166,,30,06,048,,8*6E,1646543913609
NMEA,$GLGSV,2,1,06,70,42,029,14,86,69,337,17,87,07,327,22,85,56,141,31,1*74,1646543913609
NMEA,$GLGSV,2,2,06,71,73,277,37,72,27,231,33,1*7A,1646543913609
NMEA,$GAGSV,2,1,07,04,70,070,36,09,47,206,32,11,81,045,25,12,31,123,23,7*76,1646543913609
NMEA,$GAGSV,2,2,07,19,15,042,18,36,36,316,28,05,00,000,,7*4C,1646543913609
NMEA,$GAGSV,2,1,05,04,70,070,24,11,81,045,18,05,00,000,,12,31,123,,1*74,1646543913609
NMEA,$GAGSV,2,2,05,36,36,316,,1*44,1646543913609
NMEA,$GNGSA,A,3,02,05,13,15,18,20,23,29,30,,,,1.0,0.7,0.7,1*33,1646543913619
NMEA,$GNGSA,A,3,71,72,85,86,87,,,,,,,,1.0,0.7,0.7,2*3C,1646543913619
NMEA,$GNGSA,A,3,04,09,11,12,36,,,,,,,,1.0,0.7,0.7,3*39,1646543913619
NMEA,$GNVTG,,T,,M,0.0,N,0.0,K,A*3D,1646543913619
NMEA,$GNDTM,P90,,0000.000025,S,00000.000002,E,0.982,W84*58,1646543913619
NMEA,$GNRMC,051833.00,A,3712.943078,N,08027.103339,W,0.0,,060322,8.4,W,A,V*7A,1646543913619
NMEA,$GNGNS,051833.00,3712.943078,N,08027.103339,W,AAANNN,19,0.7,634.2,-31.0,,,V*10,1646543913619
NMEA,$GNGGA,051833.00,3712.943078,N,08027.103339,W,1,12,0.7,634.2,M,-31.0,M,,*44,1646543913619
NMEA,$GPGSV,3,1,11,02,23,120,35,05,47,049,34,13,61,082,36,15,69,182,31,1*64,1646543914605
NMEA,$GPGSV,3,2,11,18,42,314,21,20,25,068,29,23,23,267,25,24,03,166,26,1*6B,1646543914605
NMEA,$GPGSV,3,3,11,29,57,226,19,30,06,048,20,51,00,000,33,1*5C,1646543914605
NMEA,$GPGSV,1,1,04,18,42,314,21,23,23,267,21,24,03,166,,30,06,048,,8*6E,1646543914605
NMEA,$GLGSV,2,1,06,70,42,029,14,86,69,337,17,87,07,327,20,85,56,141,31,1*76,1646543914605
NMEA,$GLGSV,2,2,06,71,73,277,37,72,27,231,32,1*7B,1646543914605
NMEA,$GAGSV,2,1,07,04,70,070,34,09,47,206,32,11,81,045,24,12,31,123,23,7*75,1646543914605
NMEA,$GAGSV,2,2,07,19,15,042,22,36,36,316,26,05,00,000,,7*4B,1646543914605
NMEA,$GAGSV,2,1,07,04,70,070,24,11,81,045,18,05,00,000,,09,47,206,,1*79,1646543914605
NMEA,$GAGSV,2,2,07,12,31,123,,19,15,042,,36,36,316,,1*4D,1646543914605
NMEA,$GNGSA,A,3,02,05,13,15,18,20,23,29,30,,,,1.0,0.7,0.7,1*33,1646543914616
NMEA,$GNGSA,A,3,71,72,85,86,87,,,,,,,,1.0,0.7,0.7,2*3C,1646543914616
NMEA,$GNGSA,A,3,04,09,11,12,36,,,,,,,,1.0,0.7,0.7,3*39,1646543914616
NMEA,$GNVTG,,T,,M,0.0,N,0.0,K,A*3D,1646543914616
NMEA,$GNDTM,P90,,0000.000025,S,00000.000002,E,0.982,W84*58,1646543914616
NMEA,$GNRMC,051834.00,A,3712.943084,N,08027.103396,W,0.0,,060322,8.4,W,A,V*7B,1646543914616
NMEA,$GNGNS,051834.00,3712.943084,N,08027.103396,W,AAANNN,19,0.7,634.5,-31.0,,,V*16,1646543914616
NMEA,$GNGGA,051834.00,3712.943084,N,08027.103396,W,1,12,0.7,634.5,M,-31.0,M,,*42,1646543914616
NMEA,$GPGSV,3,1,11,02,23,120,35,05,47,049,34,13,61,082,35,15,69,182,32,1*64,1646543915613
NMEA,$GPGSV,3,2,11,20,25,068,30,23,23,267,25,24,03,166,23,29,57,226,19,1*6B,1646543915613
NMEA,$GPGSV,3,3,11,30,06,048,20,18,42,314,,51,00,000,33,1*52,1646543915613
NMEA,$GPGSV,1,1,04,18,42,314,21,23,23,267,21,24,03,166,,30,06,048,,8*6E,1646543915613
NMEA,$GLGSV,2,1,06,70,42,029,14,86,69,337,17,87,07,327,20,85,56,141,32,1*75,1646543915613
NMEA,$GLGSV,2,2,06,71,73,277,37,72,27,231,32,1*7B,1646543915613
NMEA,$GAGSV,2,1,07,04,70,070,34,09,47,206,31,11,81,045,23,12,31,123,20,7*72,1646543915613
NMEA,$GAGSV,2,2,07,19,15,042,21,36,36,316,25,05,00,000,,7*4B,1646543915613
NMEA,$GAGSV,2,1,07,04,70,070,23,11,81,045,18,05,00,000,,09,47,206,,1*7E,1646543915613
NMEA,$GAGSV,2,2,07,12,31,123,,19,15,042,,36,36,316,,1*4D,1646543915613
NMEA,$GNGSA,A,3,02,05,13,15,18,20,23,29,30,,,,1.0,0.7,0.7,1*33,1646543915623
NMEA,$GNGSA,A,3,71,72,85,86,87,,,,,,,,1.0,0.7,0.7,2*3C,1646543915623
NMEA,$GNGSA,A,3,04,09,11,12,36,,,,,,,,1.0,0.7,0.7,3*39,1646543915623
NMEA,$GNVTG,,T,,M,0.0,N,0.0,K,A*3D,1646543915623
NMEA,$GNDTM,P90,,0000.000025,S,00000.000002,E,0.982,W84*58,1646543915623
NMEA,$GNRMC,051835.00,A,3712.943163,N,08027.103372,W,0.0,,060322,8.4,W,A,V*78,1646543915623
NMEA,$GNGNS,051835.00,3712.943163,N,08027.103372,W,AAANNN,19,0.7,634.2,-31.0,,,V*12,1646543915623
NMEA,$GNGGA,051835.00,3712.943163,N,08027.103372,W,1,12,0.7,634.2,M,-31.0,M,,*46,1646543915623
NMEA,$GPGSV,3,1,11,02,23,120,35,05,47,049,35,13,61,082,35,15,69,182,31,1*66,1646543916610
NMEA,$GPGSV,3,2,11,20,25,068,30,23,23,267,27,24,03,166,24,29,57,226,19,1*6E,1646543916610
NMEA,$GPGSV,3,3,11,30,06,048,20,18,42,314,,51,00,000,33,1*52,1646543916610
NMEA,$GPGSV,1,1,04,18,42,314,21,23,23,267,18,24,03,166,,30,06,048,,8*64,1646543916610
NMEA,$GLGSV,2,1,06,70,42,029,14,86,69,337,17,87,07,327,20,85,56,141,32,1*75,1646543916610
NMEA,$GLGSV,2,2,06,71,73,277,37,72,27,231,33,1*7A,1646543916610
NMEA,$GAGSV,2,1,07,04,70,070,36,09,47,206,33,11,81,045,23,12,31,123,24,7*76,1646543916610
NMEA,$GAGSV,2,2,07,19,15,042,23,36,36,316,26,05,00,000,,7*4A,1646543916610
NMEA,$GAGSV,2,1,06,04,70,070,23,11,81,045,18,05,00,000,,09,47,206,,1*7F,1646543916610
NMEA,$GAGSV,2,2,06,12,31,123,,19,15,042,,1*78,1646543916610
NMEA,$GNGSA,A,3,02,05,13,15,18,20,23,29,30,,,,1.0,0.7,0.7,1*33,1646543916624
NMEA,$GNGSA,A,3,71,72,85,87,,,,,,,,,1.0,0.7,0.7,2*32,1646543916624
NMEA,$GNGSA,A,3,04,09,11,12,36,,,,,,,,1.0,0.7,0.7,3*39,1646543916624
NMEA,$GNVTG,,T,,M,0.0,N,0.0,K,A*3D,1646543916624
NMEA,$GNDTM,P90,,0000.000025,S,00000.000002,E,0.982,W84*58,1646543916624
NMEA,$GNRMC,051836.00,A,3712.943275,N,08027.103325,W,0.0,,060322,8.4,W,A,V*7D,1646543916624
NMEA,$GNGNS,051836.00,3712.943275,N,08027.103325,W,AAANNN,18,0.7,633.2,-31.0,,,V*11,1646543916624
NMEA,$GNGGA,051836.00,3712.943275,N,08027.103325,W,1,12,0.7,633.2,M,-31.0,M,,*44,1646543916624
NMEA,$GPGSV,3,1,11,02,23,120,35,05,47,049,35,13,61,082,35,15,69,182,32,1*65,1646543917604
NMEA,$GPGSV,3,2,11,20,25,068,29,23,23,267,25,24,03,166,24,29,57,226,19,1*64,1646543917604
NMEA,$GPGSV,3,3,11,30,06,048,20,18,42,314,,51,00,000,33,1*52,1646543917604
NMEA,$GPGSV,1,1,04,18,42,314,21,23,23,267,18,24,03,166,,30,06,048,,8*64,1646543917604
NMEA,$GLGSV,2,1,06,70,42,029,14,86,69,337,18,87,07,327,20,85,56,141,32,1*7A,1646543917604
NMEA,$GLGSV,2,2,06,71,73,277,37,72,27,231,32,1*7B,1646543917604
NMEA,$GAGSV,2,1,07,04,70,070,35,09,47,206,33,11,81,045,22,12,31,123,24,7*74,1646543917604
NMEA,$GAGSV,2,2,07,19,15,042,23,36,36,316,26,05,00,000,,7*4A,1646543917604
NMEA,$GAGSV,2,1,07,04,70,070,22,11,81,045,18,05,00,000,,09,47,206,,1*7F,1646543917604
NMEA,$GAGSV,2,2,07,12,31,123,,19,15,042,,36,36,316,,1*4D,1646543917604
NMEA,$GNGSA,A,3,02,05,13,15,18,20,23,29,,,,,1.0,0.7,0.7,1*30,1646543917614
NMEA,$GNGSA,A,3,71,72,85,86,87,,,,,,,,1.0,0.7,0.7,2*3C,1646543917614
NMEA,$GNGSA,A,3,04,09,11,12,36,,,,,,,,1.0,0.7,0.7,3*39,1646543917614
NMEA,$GNVTG,,T,,M,0.0,N,0.0,K,A*3D,1646543917614
NMEA,$GNDTM,P90,,0000.000025,S,00000.000002,E,0.982,W84*58,1646543917614
NMEA,$GNRMC,051837.00,A,3712.943357,N,08027.103618,W,0.0,,060322,8.4,W,A,V*76,1646543917614
NMEA,$GNGNS,051837.00,3712.943357,N,08027.103618,W,AAANNN,18,0.7,633.1,-31.0,,,V*19,1646543917614
NMEA,$GNGGA,051837.00,3712.943357,N,08027.103618,W,1,12,0.7,633.1,M,-31.0,M,,*4C,1646543917614
NMEA,$GPGSV,3,1,11,02,23,120,35,05,47,049,34,13,61,082,36,15,69,182,32,1*67,1646543918610
NMEA,$GPGSV,3,2,11,20,25,068,30,23,23,267,25,24,03,166,24,29,57,226,19,1*6C,1646543918610
NMEA,$GPGSV,3,3,11,30,06,048,20,18,42,314,,51,00,000,33,1*52,1646543918610
NMEA,$GPGSV,1,1,04,18,42,314,21,23,23,267,21,24,03,166,,30,06,048,,8*6E,1646543918610
NMEA,$GLGSV,2,1,06,70,42,029,14,86,69,337,18,87,07,327,20,85,56,141,32,1*7A,1646543918610
NMEA,$GLGSV,2,2,06,71,73,277,37,72,27,231,33,1*7A,1646543918610
NMEA,$GAGSV,2,1,07,04,70,070,35,09,47,206,33,11,81,045,22,12,31,123,21,7*71,1646543918610
NMEA,$GAGSV,2,2,07,19,15,042,22,36,36,316,25,05,00,000,,7*48,1646543918610
NMEA,$GAGSV,2,1,07,04,70,070,24,11,81,045,18,05,00,000,,09,47,206,,1*79,1646543918610
NMEA,$GAGSV,2,2,07,12,31,123,,19,15,042,,36,36,316,,1*4D,1646543918610
NMEA,$GNGSA,A,3,02,05,13,15,18,20,23,29,,,,,1.0,0.7,0.7,1*30,1646543918620
NMEA,$GNGSA,A,3,71,72,85,86,87,,,,,,,,1.0,0.7,0.7,2*3C,1646543918620
NMEA,$GNGSA,A,3,04,09,11,12,36,,,,,,,,1.0,0.7,0.7,3*39,1646543918620
NMEA,$GNVTG,,T,,M,0.0,N,0.0,K,A*3D,1646543918620
NMEA,$GNDTM,P90,,0000.000025,S,00000.000002,E,0.982,W84*58,1646543918620
NMEA,$GNRMC,051838.00,A,3712.943561,N,08027.103430,W,0.0,,060322,8.4,W,A,V*72,1646543918620
NMEA,$GNGNS,051838.00,3712.943561,N,08027.103430,W,AAANNN,18,0.7,632.8,-31.0,,,V*15,1646543918620
NMEA,$GNGGA,051838.00,3712.943561,N,08027.103430,W,1,12,0.7,632.8,M,-31.0,M,,*40,1646543918620
NMEA,$GPGSV,3,1,11,02,23,120,35,05,47,049,34,13,61,082,35,15,69,182,31,1*67,1646543919604
NMEA,$GPGSV,3,2,11,20,25,068,31,23,23,267,26,24,03,166,25,29,57,226,19,1*6F,1646543919604
NMEA,$GPGSV,3,3,11,30,06,048,20,18,42,314,,51,00,000,33,1*52,1646543919604
NMEA,$GPGSV,1,1,04,18,42,314,13,23,23,267,21,24,03,166,,30,06,048,,8*6F,1646543919604
NMEA,$GLGSV,2,1,06,70,42,029,14,86,69,337,18,87,07,327,20,85,56,141,32,1*7A,1646543919604
NMEA,$GLGSV,2,2,06,71,73,277,37,72,27,231,33,1*7A,1646543919604
NMEA,$GAGSV,2,1,07,04,70,070,35,09,47,206,33,11,81,045,23,12,31,123,21,7*70,1646543919604
NMEA,$GAGSV,2,2,07,19,15,042,23,36,36,316,25,05,00,000,,7*49,1646543919604
NMEA,$GAGSV,2,1,07,04,70,070,23,09,47,206,18,11,81,045,18,05,00,000,,1*77,1646543919604
NMEA,$GAGSV,2,2,07,12,31,123,,19,15,042,,36,36,316,,1*4D,1646543919604
NMEA,$GNGSA,A,3,02,05,13,15,20,23,,,,,,,1.1,0.8,0.7,1*3C,1646543919615
NMEA,$GNGSA,A,3,71,72,85,86,87,,,,,,,,1.1,0.8,0.7,2*32,1646543919615
NMEA,$GNGSA,A,3,04,09,11,12,36,,,,,,,,1.1,0.8,0.7,3*37,1646543919615
NMEA,$GNVTG,,T,,M,0.0,N,0.0,K,A*3D,1646543919615
NMEA,$GNDTM,P90,,0000.000025,S,00000.000002,E,0.982,W84*58,1646543919615
NMEA,$GNRMC,051839.00,A,3712.943814,N,08027.103381,W,0.0,,060322,8.4,W,A,V*71,1646543919615
NMEA,$GNGNS,051839.00,3712.943814,N,08027.103381,W,AAANNN,16,0.8,632.6,-31.0,,,V*19,1646543919615
NMEA,$GNGGA,051839.00,3712.943814,N,08027.103381,W,1,12,0.8,632.6,M,-31.0,M,,*42,1646543919615
NMEA,$GPGSV,3,1,11,02,23,120,35,05,47,049,34,13,61,082,35,15,69,182,31,1*67,1646543920603
NMEA,$GPGSV,3,2,11,20,25,068,31,23,23,267,26,24,03,166,25,29,57,226,19,1*6F,1646543920603
NMEA,$GPGSV,3,3,11,30,06,048,20,18,42,314,,51,00,000,33,1*52,1646543920603
NMEA,$GPGSV,1,1,04,18,42,314,13,23,23,267,20,24,03,166,,30,06,048,,8*6E,1646543920603
NMEA,$GLGSV,2,1,06,70,42,029,14,86,69,337,18,87,07,327,22,85,56,141,33,1*79,1646543920603
NMEA,$GLGSV,2,2,06,71,73,277,37,72,27,231,33,1*7A,1646543920603
NMEA,$GAGSV,2,1,07,04,70,070,35,09,47,206,33,11,81,045,23,12,31,123,22,7*73,1646543920603
NMEA,$GAGSV,2,2,07,19,15,042,21,36,36,316,26,05,00,000,,7*48,1646543920603
NMEA,$GAGSV,2,1,07,04,70,070,24,09,47,206,18,11,81,045,18,05,00,000,,1*70,1646543920603
NMEA,$GAGSV,2,2,07,12,31,123,,19,15,042,,36,36,316,,1*4D,1646543920603
NMEA,$GNGSA,A,3,02,05,13,15,20,23,,,,,,,1.1,0.8,0.7,1*3C,1646543920614
NMEA,$GNGSA,A,3,71,72,85,86,87,,,,,,,,1.1,0.8,0.7,2*32,1646543920614
NMEA,$GNGSA,A,3,04,09,11,12,36,,,,,,,,1.1,0.8,0.7,3*37,1646543920614
NMEA,$GNVTG,,T,,M,0.0,N,0.0,K,A*3D,1646543920614
NMEA,$GNDTM,P90,,0000.000025,S,00000.000002,E,0.982,W84*58,1646543920614
NMEA,$GNRMC,051840.00,A,3712.943883,N,08027.103492,W,0.0,,060322,8.4,W,A,V*74,1646543920614
NMEA,$GNGNS,051840.00,3712.943883,N,08027.103492,W,AAANNN,16,0.8,632.3,-31.0,,,V*19,1646543920614
NMEA,$GNGGA,051840.00,3712.943883,N,08027.103492,W,1,12,0.8,632.3,M,-31.0,M,,*42,1646543920614
NMEA,$GPGSV,3,1,11,02,23,120,35,05,47,049,34,13,61,082,35,15,69,182,31,1*67,1646543921605
NMEA,$GPGSV,3,2,11,18,42,314,20,20,25,068,31,23,23,267,25,24,03,166,25,1*60,1646543921605
NMEA,$GPGSV,3,3,11,29,57,226,19,30,06,048,20,51,00,000,33,1*5C,1646543921605
NMEA,$GPGSV,1,1,04,18,42,314,13,23,23,267,20,24,03,166,,30,06,048,,8*6E,1646543921605
NMEA,$GLGSV,2,1,06,70,42,029,14,86,69,337,18,87,07,327,22,85,56,141,33,1*79,1646543921605
NMEA,$GLGSV,2,2,06,71,73,277,37,72,27,231,33,1*7A,1646543921605
NMEA,$GAGSV,2,1,07,04,70,070,35,09,47,206,33,11,81,045,23,12,31,123,23,7*72,1646543921605
NMEA,$GAGSV,2,2,07,19,15,042,23,36,36,316,25,05,00,000,,7*49,1646543921605
NMEA,$GAGSV,2,1,07,04,70,070,24,09,47,206,18,11,81,045,18,05,00,000,,1*70,1646543921605
NMEA,$GAGSV,2,2,07,12,31,123,,19,15,042,,36,36,316,,1*4D,1646543921605
NMEA,$GNGSA,A,3,02,05,13,15,18,20,23,,,,,,1.0,0.8,0.7,1*34,1646543921619
NMEA,$GNGSA,A,3,71,72,85,86,87,,,,,,,,1.0,0.8,0.7,2*33,1646543921619
NMEA,$GNGSA,A,3,04,09,11,12,36,,,,,,,,1.0,0.8,0.7,3*36,1646543921619
NMEA,$GNVTG,,T,,M,0.0,N,0.0,K,A*3D,1646543921619
NMEA,$GNDTM,P90,,0000.000025,S,00000.000002,E,0.982,W84*58,1646543921619
NMEA,$GNRMC,051841.00,A,3712.944155,N,08027.103619,W,0.0,,060322,8.4,W,A,V*71,1646543921619
NMEA,$GNGNS,051841.00,3712.944155,N,08027.103619,W,AAANNN,17,0.8,631.8,-31.0,,,V*15,1646543921619
NMEA,$GNGGA,051841.00,3712.944155,N,08027.103619,W,1,12,0.8,631.8,M,-31.0,M,,*4F,1646543921619
NMEA,$GPGSV,3,1,11,02,23,120,33,05,47,049,34,13,61,082,36,15,69,182,31,1*62,1646543922605
NMEA,$GPGSV,3,2,11,18,42,314,20,20,25,068,31,23,23,267,25,24,03,166,25,1*60,1646543922605
NMEA,$GPGSV,3,3,11,29,57,226,19,30,06,048,20,51,00,000,33,1*5C,1646543922605
NMEA,$GPGSV,1,1,04,18,42,314,13,23,23,267,20,24,03,166,,30,06,048,,8*6E,1646543922605
NMEA,$GLGSV,2,1,06,70,42,029,14,86,69,337,18,87,07,327,25,85,56,141,34,1*79,1646543922605
NMEA,$GLGSV,2,2,06,71,73,277,38,72,27,231,34,1*72,1646543922605
NMEA,$GAGSV,2,1,07,04,70,070,35,09,47,206,33,11,81,045,24,12,31,123,24,7*72,1646543922605
NMEA,$GAGSV,2,2,07,19,15,042,24,36,36,316,26,05,00,000,,7*4D,1646543922605
NMEA,$GAGSV,2,1,07,04,70,070,25,09,47,206,20,11,81,045,18,05,00,000,,1*7A,1646543922605
NMEA,$GAGSV,2,2,07,12,31,123,,19,15,042,,36,36,316,,1*4D,1646543922605
NMEA,$GNGSA,A,3,02,05,13,15,18,20,23,,,,,,1.0,0.8,0.7,1*34,1646543922617
NMEA,$GNGSA,A,3,71,72,85,86,87,,,,,,,,1.0,0.8,0.7,2*33,1646543922617
NMEA,$GNGSA,A,3,04,09,11,12,36,,,,,,,,1.0,0.8,0.7,3*36,1646543922617
NMEA,$GNVTG,,T,,M,0.0,N,0.0,K,A*3D,1646543922617
NMEA,$GNDTM,P90,,0000.000025,S,00000.000002,E,0.982,W84*58,1646543922617
NMEA,$GNRMC,051842.00,A,3712.943925,N,08027.104258,W,0.0,,060322,8.4,W,A,V*7C,1646543922617
NMEA,$GNGNS,051842.00,3712.943925,N,08027.104258,W,AAANNN,17,0.8,631.2,-31.0,,,V*12,1646543922617
NMEA,$GNGGA,051842.00,3712.943925,N,08027.104258,W,1,12,0.8,631.2,M,-31.0,M,,*48,1646543922617
NMEA,$GPGSV,3,1,11,02,23,120,33,05,47,049,33,13,61,082,35,15,69,182,32,1*65,1646543923609
NMEA,$GPGSV,3,2,11,18,42,314,20,20,25,068,30,23,23,267,25,24,03,166,24,1*60,1646543923609
NMEA,$GPGSV,3,3,11,29,57,226,19,30,06,048,,51,00,000,33,1*5E,1646543923609
NMEA,$GPGSV,1,1,03,18,42,314,13,23,23,267,19,30,06,048,,8*57,1646543923609
NMEA,$GLGSV,2,1,06,70,42,029,14,86,69,337,18,87,07,327,23,85,56,141,34,1*7F,1646543923609
NMEA,$GLGSV,2,2,06,71,73,277,37,72,27,231,33,1*7A,1646543923609
NMEA,$GAGSV,2,1,07,04,70,070,34,09,47,206,31,11,81,045,23,12,31,123,24,7*76,1646543923609
NMEA,$GAGSV,2,2,07,19,15,042,24,36,36,316,27,05,00,000,,7*4C,1646543923609
NMEA,$GAGSV,2,1,07,04,70,070,26,09,47,206,20,11,81,045,18,05,00,000,,1*79,1646543923609
NMEA,$GAGSV,2,2,07,12,31,123,,19,15,042,,36,36,316,,1*4D,1646543923609
NMEA,$GNGSA,A,3,02,05,13,15,18,20,23,,,,,,1.0,0.8,0.7,1*34,1646543923620
NMEA,$GNGSA,A,3,71,72,85,86,87,,,,,,,,1.0,0.8,0.7,2*33,1646543923620
NMEA,$GNGSA,A,3,04,09,11,12,36,,,,,,,,1.0,0.8,0.7,3*36,1646543923620
NMEA,$GNVTG,,T,,M,0.0,N,0.0,K,A*3D,1646543923620
NMEA,$GNDTM,P90,,0000.000025,S,00000.000002,E,0.982,W84*58,1646543923620
NMEA,$GNRMC,051843.00,A,3712.943856,N,08027.104437,W,0.0,,060322,8.4,W,A,V*77,1646543923620
NMEA,$GNGNS,051843.00,3712.943856,N,08027.104437,W,AAANNN,17,0.8,631.6,-31.0,,,V*1D,1646543923620
NMEA,$GNGGA,051843.00,3712.943856,N,08027.104437,W,1,12,0.8,631.6,M,-31.0,M,,*47,1646543923620
NMEA,$GPGSV,3,1,11,02,23,120,33,05,47,049,33,13,60,080,34,15,69,182,33,1*66,1646543924608
NMEA,$GPGSV,3,2,11,18,42,314,20,20,25,068,30,23,23,267,24,24,03,166,25,1*60,1646543924608
NMEA,$GPGSV,3,3,11,29,57,226,19,30,06,048,,51,00,000,33,1*5E,1646543924608
NMEA,$GPGSV,1,1,04,18,42,314,13,23,23,267,19,24,03,166,,30,06,048,,8*64,1646543924608
NMEA,$GLGSV,2,1,06,86,69,337,18,87,07,327,22,85,56,141,34,71,73,277,37,1*75,1646543924608
NMEA,$GLGSV,2,2,06,72,27,231,33,,42,029,,1*73,1646543924608
NMEA,$GAGSV,2,1,07,04,70,070,35,09,47,206,32,11,81,045,24,12,31,123,21,7*76,1646543924608
NMEA,$GAGSV,2,2,07,19,15,042,25,36,36,316,29,05,00,000,,7*43,1646543924608
NMEA,$GAGSV,2,1,07,04,70,070,24,09,47,206,20,11,81,045,18,05,00,000,,1*7B,1646543924608
NMEA,$GAGSV,2,2,07,12,31,123,,19,15,042,,36,36,316,,1*4D,1646543924608
NMEA,$GNGSA,A,3,02,05,13,15,18,20,23,,,,,,1.0,0.8,0.7,1*34,1646543924621
NMEA,$GNGSA,A,3,71,72,85,86,87,,,,,,,,1.0,0.8,0.7,2*33,1646543924621
NMEA,$GNGSA,A,3,04,09,11,12,36,,,,,,,,1.0,0.8,0.7,3*36,1646543924621
NMEA,$GNVTG,,T,,M,0.0,N,0.0,K,A*3D,1646543924621
NMEA,$GNDTM,P90,,0000.000025,S,00000.000002,E,0.982,W84*58,1646543924621
NMEA,$GNRMC,051844.00,A,3712.944028,N,08027.104678,W,0.0,,060322,8.4,W,A,V*7F,1646543924621
NMEA,$GNGNS,051844.00,3712.944028,N,08027.104678,W,AAANNN,17,0.8,631.9,-31.0,,,V*1A,1646543924621
NMEA,$GNGGA,051844.00,3712.944028,N,08027.104678,W,1,12,0.8,631.9,M,-31.0,M,,*40,1646543924621
NMEA,$GPGSV,3,1,11,02,23,120,34,05,47,049,34,13,60,080,34,15,69,182,33,1*66,1646543925605
NMEA,$GPGSV,3,2,11,18,42,314,21,20,25,068,30,23,23,267,24,24,03,166,25,1*61,1646543925605
NMEA,$GPGSV,3,3,11,29,57,226,,30,06,048,,51,00,000,33,1*56,1646543925605
NMEA,$GPGSV,1,1,04,18,42,314,13,23,23,267,19,24,03,166,,30,06,048,,8*64,1646543925605
NMEA,$GLGSV,2,1,06,86,69,337,18,87,07,327,24,85,56,141,35,71,73,277,38,1*7D,1646543925605
NMEA,$GLGSV,2,2,06,72,27,231,32,70,42,029,,1*75,1646543925605
NMEA,$GAGSV,2,1,07,04,70,070,35,09,47,206,32,11,81,045,25,12,31,123,20,7*76,1646543925605
NMEA,$GAGSV,2,2,07,19,15,042,26,36,36,316,30,05,00,000,,7*48,1646543925605
NMEA,$GAGSV,2,1,07,04,70,070,25,09,47,206,20,11,81,045,18,05,00,000,,1*7A,1646543925605
NMEA,$GAGSV,2,2,07,12,31,123,,19,15,042,,36,36,316,,1*4D,1646543925605
NMEA,$GNGSA,A,3,02,05,13,15,18,20,23,,,,,,1.0,0.8,0.7,1*34,1646543925613
NMEA,$GNGSA,A,3,71,72,85,86,87,,,,,,,,1.0,0.8,0.7,2*33,1646543925613
NMEA,$GNGSA,A,3,04,09,11,12,36,,,,,,,,1.0,0.8,0.7,3*36,1646543925613
NMEA,$GNVTG,,T,,M,0.0,N,0.0,K,A*3D,1646543925613
NMEA,$GNDTM,P90,,0000.000025,S,00000.000002,E,0.982,W84*58,1646543925613
NMEA,$GNRMC,051845.00,A,3712.944347,N,08027.105152,W,0.0,,060322,8.4,W,A,V*7A,1646543925613
NMEA,$GNGNS,051845.00,3712.944347,N,08027.105152,W,AAANNN,17,0.8,631.6,-31.0,,,V*10,1646543925613
NMEA,$GNGGA,051845.00,3712.944347,N,08027.105152,W,1,12,0.8,631.6,M,-31.0,M,,*4A,1646543925613
NMEA,$GPGSV,3,1,11,02,23,120,34,05,47,049,34,13,60,080,34,15,69,182,33,1*66,1646543926604
NMEA,$GPGSV,3,2,11,18,42,314,21,20,25,068,30,23,23,267,25,24,03,166,26,1*63,1646543926604
NMEA,$GPGSV,3,3,11,29,57,226,,30,06,048,,51,00,000,33,1*56,1646543926604
NMEA,$GPGSV,1,1,04,18,42,314,13,23,23,267,19,24,03,166,,30,06,048,,8*64,1646543926604
NMEA,$GLGSV,2,1,06,86,69,337,18,87,07,327,23,85,56,141,35,71,73,277,38,1*7A,1646543926604
NMEA,$GLGSV,2,2,06,72,27,231,33,70,42,029,,1*74,1646543926604
NMEA,$GAGSV,2,1,07,04,70,070,35,09,47,206,32,11,81,045,26,12,31,123,21,7*74,1646543926604
NMEA,$GAGSV,2,2,07,19,15,042,26,36,36,316,30,05,00,000,,7*48,1646543926604
NMEA,$GAGSV,2,1,07,04,70,070,24,09,47,206,20,11,81,045,18,05,00,000,,1*7B,1646543926604
NMEA,$GAGSV,2,2,07,12,31,123,,19,15,042,,36,36,316,,1*4D,1646543926604
NMEA,$GNGSA,A,3,02,05,13,15,18,20,23,,,,,,1.0,0.8,0.7,1*34,1646543926618
NMEA,$GNGSA,A,3,71,72,85,86,87,,,,,,,,1.0,0.8,0.7,2*33,1646543926618
NMEA,$GNGSA,A,3,04,09,11,12,36,,,,,,,,1.0,0.8,0.7,3*36,1646543926618
NMEA,$GNVTG,,T,,M,0.0,N,0.0,K,A*3D,1646543926618
NMEA,$GNDTM,P90,,0000.000025,S,00000.000002,E,0.982,W84*58,1646543926618
NMEA,$GNRMC,051846.00,A,3712.944326,N,08027.105303,W,0.0,,060322,8.4,W,A,V*78,1646543926618
NMEA,$GNGNS,051846.00,3712.944326,N,08027.105303,W,AAANNN,17,0.8,631.6,-31.0,,,V*12,1646543926618
NMEA,$GNGGA,051846.00,3712.944326,N,08027.105303,W,1,12,0.8,631.6,M,-31.0,M,,*48,1646543926618
NMEA,$GPGSV,3,1,11,02,23,120,34,05,47,049,34,13,60,080,34,15,69,182,33,1*66,1646543927606
NMEA,$GPGSV,3,2,11,18,42,314,19,20,25,068,29,23,23,267,24,24,03,166,26,1*61,1646543927606
NMEA,$GPGSV,3,3,11,29,57,226,,30,06,048,,51,00,000,33,1*56,1646543927606
NMEA,$GPGSV,1,1,03,18,42,314,13,23,23,267,19,24,03,166,,8*5A,1646543927606
NMEA,$GLGSV,2,1,06,86,69,337,17,87,07,327,23,85,56,141,34,71,73,277,38,1*74,1646543927606
NMEA,$GLGSV,2,2,06,72,27,231,33,70,42,029,,1*74,1646543927606
NMEA,$GAGSV,2,1,07,04,70,070,35,09,47,206,32,11,81,045,25,12,31,123,20,7*76,1646543927606
NMEA,$GAGSV,2,2,07,19,15,042,26,36,36,316,29,05,00,000,,7*40,1646543927606
NMEA,$GAGSV,2,1,07,04,70,070,23,09,47,206,20,11,81,045,18,05,00,000,,1*7C,1646543927606
NMEA,$GAGSV,2,2,07,12,31,123,,19,15,042,,36,36,316,,1*4D,1646543927606
NMEA,$GNGSA,A,3,02,05,13,15,18,20,23,,,,,,1.0,0.8,0.7,1*34,1646543927620
NMEA,$GNGSA,A,3,71,72,85,86,87,,,,,,,,1.0,0.8,0.7,2*33,1646543927620
NMEA,$GNGSA,A,3,04,09,11,12,36,,,,,,,,1.0,0.8,0.7,3*36,1646543927620
NMEA,$GNVTG,,T,,M,0.0,N,0.0,K,A*3D,1646543927620
NMEA,$GNDTM,P90,,0000.000025,S,00000.000002,E,0.982,W84*58,1646543927620
NMEA,$GNRMC,051847.00,A,3712.944555,N,08027.105368,W,0.0,,060322,8.4,W,A,V*76,1646543927620
NMEA,$GNGNS,051847.00,3712.944555,N,08027.105368,W,AAANNN,17,0.8,631.8,-31.0,,,V*12,1646543927620
NMEA,$GNGGA,051847.00,3712.944555,N,08027.105368,W,1,12,0.8,631.8,M,-31.0,M,,*48,1646543927620
NMEA,$GPGSV,3,1,11,02,23,120,33,05,47,049,34,13,60,080,33,15,69,182,33,1*66,1646543928604
NMEA,$GPGSV,3,2,11,18,42,314,19,20,25,068,29,23,23,267,25,24,03,166,25,1*63,1646543928604
NMEA,$GPGSV,3,3,11,29,57,226,,30,06,048,,51,00,000,33,1*56,1646543928604
NMEA,$GPGSV,1,1,04,18,42,314,13,23,23,267,19,24,03,166,,30,06,048,,8*64,1646543928604
NMEA,$GLGSV,2,1,06,86,69,337,17,87,07,327,23,85,56,141,34,71,73,277,37,1*7B,1646543928604
NMEA,$GLGSV,2,2,06,72,27,231,33,70,42,029,,1*74,1646543928604
NMEA,$GAGSV,2,1,07,04,70,070,34,09,47,206,31,11,81,045,26,12,31,123,20,7*77,1646543928604
NMEA,$GAGSV,2,2,07,19,15,042,25,36,36,316,29,05,00,000,,7*43,1646543928604
NMEA,$GAGSV,2,1,05,04,70,070,24,09,47,206,20,11,81,045,18,19,15,042,,1*76,1646543928604
NMEA,$GAGSV,2,2,05,36,36,316,,1*44,1646543928604
NMEA,$GNGSA,A,3,02,05,13,15,18,20,23,,,,,,1.0,0.8,0.7,1*34,1646543928619
NMEA,$GNGSA,A,3,71,72,85,86,87,,,,,,,,1.0,0.8,0.7,2*33,1646543928619
NMEA,$GNGSA,A,3,04,09,11,12,36,,,,,,,,1.0,0.8,0.7,3*36,1646543928619
NMEA,$GNVTG,,T,,M,0.0,N,0.0,K,A*3D,1646543928619
NMEA,$GNDTM,P90,,0000.000025,S,00000.000002,E,0.982,W84*58,1646543928619
NMEA,$GNRMC,051848.00,A,3712.944401,N,08027.105599,W,0.0,,060322,8.4,W,A,V*71,1646543928619
NMEA,$GNGNS,051848.00,3712.944401,N,08027.105599,W,AAANNN,17,0.8,631.6,-31.0,,,V*1B,1646543928619
NMEA,$GNGGA,051848.00,3712.944401,N,08027.105599,W,1,12,0.8,631.6,M,-31.0,M,,*41,1646543928619
NMEA,$GPGSV,3,1,11,02,23,120,33,05,47,049,33,13,60,080,33,15,69,182,33,1*61,1646543929603
NMEA,$GPGSV,3,2,11,18,42,314,19,20,25,068,29,23,23,267,25,24,03,166,25,1*63,1646543929603
NMEA,$GPGSV,3,3,11,29,57,226,,30,06,048,,51,00,000,33,1*56,1646543929603
NMEA,$GPGSV,1,1,04,18,42,314,13,23,23,267,19,24,03,166,,30,06,048,,8*64,1646543929603
NMEA,$GLGSV,2,1,06,86,69,337,17,87,07,327,22,85,56,141,34,71,73,277,38,1*75,1646543929603
NMEA,$GLGSV,2,2,06,72,27,231,34,70,42,029,,1*73,1646543929603
NMEA,$GAGSV,2,1,07,04,70,070,34,09,47,206,31,11,81,045,25,12,31,123,21,7*75,1646543929603
NMEA,$GAGSV,2,2,07,19,15,042,24,36,36,316,28,05,00,000,,7*43,1646543929603
NMEA,$GAGSV,2,1,07,04,70,070,25,09,47,206,20,11,81,045,18,05,00,000,,1*7A,1646543929603
NMEA,$GAGSV,2,2,07,12,31,123,,19,15,042,,36,36,316,,1*4D,1646543929603
NMEA,$GNGSA,A,3,02,05,13,15,18,20,23,,,,,,1.0,0.8,0.7,1*34,1646543929613
NMEA,$GNGSA,A,3,71,72,85,86,87,,,,,,,,1.0,0.8,0.7,2*33,1646543929613
NMEA,$GNGSA,A,3,04,09,11,12,36,,,,,,,,1.0,0.8,0.7,3*36,1646543929613
NMEA,$GNVTG,,T,,M,0.0,N,0.0,K,A*3D,1646543929613
NMEA,$GNDTM,P90,,0000.000025,S,00000.000002,E,0.982,W84*58,1646543929613
NMEA,$GNRMC,051849.00,A,3712.944615,N,08027.105584,W,0.0,,060322,8.4,W,A,V*7B,1646543929613
NMEA,$GNGNS,051849.00,3712.944615,N,08027.105584,W,AAANNN,17,0.8,631.5,-31.0,,,V*12,1646543929613
NMEA,$GNGGA,051849.00,3712.944615,N,08027.105584,W,1,12,0.8,631.5,M,-31.0,M,,*48,1646543929613
NMEA,$GPGSV,3,1,11,02,23,120,34,05,47,049,34,13,60,080,34,15,69,182,32,1*67,1646543930606
NMEA,$GPGSV,3,2,11,18,42,314,20,20,25,068,28,23,23,267,25,24,03,166,25,1*68,1646543930606
NMEA,$GPGSV,3,3,11,29,57,226,,30,06,048,,51,00,000,33,1*56,1646543930606
NMEA,$GPGSV,1,1,04,18,42,314,13,23,23,267,19,24,03,166,,30,06,048,,8*64,1646543930606
NMEA,$GLGSV,2,1,06,86,69,337,17,87,07,327,22,85,56,141,34,71,73,277,38,1*75,1646543930606
NMEA,$GLGSV,2,2,06,72,27,231,33,70,42,029,,1*74,1646543930606
NMEA,$GAGSV,2,1,07,04,70,070,34,09,47,206,32,11,81,045,26,12,31,123,23,7*77,1646543930606
NMEA,$GAGSV,2,2,07,19,15,042,24,36,36,316,28,05,00,000,,7*43,1646543930606
NMEA,$GAGSV,2,1,07,04,70,070,24,09,47,206,20,11,81,045,18,05,00,000,,1*7B,1646543930606
NMEA,$GAGSV,2,2,07,12,31,123,,19,15,042,,36,36,316,,1*4D,1646543930606
NMEA,$GNGSA,A,3,02,05,13,15,18,20,23,,,,,,1.0,0.8,0.7,1*34,1646543930615
NMEA,$GNGSA,A,3,71,72,85,86,87,,,,,,,,1.0,0.8,0.7,2*33,1646543930615
NMEA,$GNGSA,A,3,04,09,11,12,36,,,,,,,,1.0,0.8,0.7,3*36,1646543930615
NMEA,$GNVTG,,T,,M,0.0,N,0.0,K,A*3D,1646543930615
NMEA,$GNDTM,P90,,0000.000025,S,00000.000002,E,0.982,W84*58,1646543930615
NMEA,$GNRMC,051850.00,A,3712.944877,N,08027.105676,W,0.0,,060322,8.4,W,A,V*77,1646543930615
NMEA,$GNGNS,051850.00,3712.944877,N,08027.105676,W,AAANNN,17,0.8,631.0,-31.0,,,V*1B,1646543930615
NMEA,$GNGGA,051850.00,3712.944877,N,08027.105676,W,1,12,0.8,631.0,M,-31.0,M,,*41,1646543930615
NMEA,$GPGSV,3,1,11,02,23,120,32,05,47,049,34,13,60,080,33,15,69,182,30,1*64,1646543931609
NMEA,$GPGSV,3,2,11,18,42,314,20,20,25,068,29,23,23,267,25,24,03,166,24,1*68,1646543931609
NMEA,$GPGSV,3,3,11,29,57,226,,30,06,048,,51,00,000,33,1*56,1646543931609
NMEA,$GPGSV,1,1,04,18,42,314,13,23,23,267,19,24,03,166,,30,06,048,,8*64,1646543931609
NMEA,$GLGSV,2,1,06,86,69,337,17,87,07,327,22,85,56,141,34,71,73,277,38,1*75,1646543931609
NMEA,$GLGSV,2,2,06,72,27,231,33,70,42,029,,1*74,1646543931609
NMEA,$GAGSV,2,1,07,04,70,070,33,09,47,206,33,11,81,045,24,12,31,123,25,7*75,1646543931609
NMEA,$GAGSV,2,2,07,19,15,042,23,36,36,316,27,05,00,000,,7*4B,1646543931609
NMEA,$GAGSV,2,1,06,04,70,070,26,09,47,206,20,05,00,000,,12,31,123,,1*78,1646543931609
NMEA,$GAGSV,2,2,06,19,15,042,,36,36,316,,1*7D,1646543931609
NMEA,$GNGSA,A,3,02,05,13,15,18,20,23,,,,,,1.0,0.8,0.7,1*34,1646543931618
NMEA,$GNGSA,A,3,71,72,85,86,87,,,,,,,,1.0,0.8,0.7,2*33,1646543931618
NMEA,$GNGSA,A,3,04,09,11,12,36,,,,,,,,1.0,0.8,0.7,3*36,1646543931618
NMEA,$GNVTG,,T,,M,0.0,N,0.0,K,A*3D,1646543931618
NMEA,$GNDTM,P90,,0000.000025,S,00000.000002,E,0.982,W84*58,1646543931618
NMEA,$GNRMC,051851.00,A,3712.944884,N,08027.105719,W,0.0,,060322,8.4,W,A,V*72,1646543931618
NMEA,$GNGNS,051851.00,3712.944884,N,08027.105719,W,AAANNN,17,0.8,631.0,-31.0,,,V*1E,1646543931618
NMEA,$GNGGA,051851.00,3712.944884,N,08027.105719,W,1,12,0.8,631.0,M,-31.0,M,,*44,1646543931618
NMEA,$GPGSV,3,1,11,02,23,120,32,05,47,049,33,13,60,080,32,15,69,182,30,1*62,1646543932603
NMEA,$GPGSV,3,2,11,18,42,314,20,20,25,068,30,23,23,267,27,24,03,166,23,1*65,1646543932603
NMEA,$GPGSV,3,3,11,29,57,226,,30,06,048,,51,00,000,33,1*56,1646543932603
NMEA,$GPGSV,1,1,04,18,42,314,13,23,23,267,19,24,03,166,,30,06,048,,8*64,1646543932603
