# 
# Header Description:
# 
# Version: v3.0.3.1 Platform: 12 Manufacturer: OnePlus Model: LE2115
# 
# Raw,utcTimeMillis,TimeNanos,LeapSecond,TimeUncertaintyNanos,FullBiasNanos,BiasNanos,BiasUncertaintyNanos,DriftNanosPerSecond,DriftUncertaintyNanosPerSecond,HardwareClockDiscontinuityCount,Svid,TimeOffsetNanos,State,ReceivedSvTimeNanos,ReceivedSvTimeUncertaintyNanos,Cn0DbHz,PseudorangeRateMetersPerSecond,PseudorangeRateUncertaintyMetersPerSecond,AccumulatedDeltaRangeState,AccumulatedDeltaRangeMeters,AccumulatedDeltaRangeUncertaintyMeters,CarrierFrequencyHz,CarrierCycles,CarrierPhase,CarrierPhaseUncertainty,MultipathIndicator,SnrInDb,ConstellationType,AgcDb,BasebandCn0DbHz,FullInterSignalBiasNanos,FullInterSignalBiasUncertaintyNanos,SatelliteInterSignalBiasNanos,SatelliteInterSignalBiasUncertaintyNanos,CodeType,ChipsetElapsedRealtimeNanos
# 
# UncalAccel,utcTimeMillis,elapsedRealtimeNanos,UncalAccelXMps2,UncalAccelYMps2,UncalAccelZMps2,BiasXMps2,BiasYMps2,BiasZMps2
# 
# UncalGyro,utcTimeMillis,elapsedRealtimeNanos,UncalGyroXRadPerSec,UncalGyroYRadPerSec,UncalGyroZRadPerSec,DriftXRadPerSec,DriftYRadPerSec,DriftZRadPerSec
# 
# UncalMag,utcTimeMillis,elapsedRealtimeNanos,UncalMagXMicroT,UncalMagYMicroT,UncalMagZMicroT,BiasXMicroT,BiasYMicroT,BiasZMicroT
# 
# OrientationDeg,utcTimeMillis,elapsedRealtimeNanos,yawDeg,rollDeg,pitchDeg
# 
# Fix,Provider,LatitudeDegrees,LongitudeDegrees,AltitudeMeters,SpeedMps,AccuracyMeters,BearingDegrees,UnixTimeMillis,SpeedAccuracyMps,BearingAccuracyDegrees,elapsedRealtimeNanos
# 
# Nav,Svid,Type,Status,MessageId,Sub-messageId,Data(Bytes)
# 
# Status,UnixTimeMillis,SignalCount,SignalIndex,ConstellationType,Svid,CarrierFrequencyHz,Cn0DbHz,AzimuthDegrees,ElevationDegrees,UsedInFix,HasAlmanacData,HasEphemerisData,BasebandCn0DbHz
# 
UncalAccel,1650242391341,365687570834252,-2.6420016,5.039196,8.6712,0.0,0.0,0.0
UncalGyro,1650242391340,365687570834252,0.1498027,0.07243793,0.060853187,0.003772056,-0.0010888841,0.0035041608
UncalAccel,1650242391350,365687580885033,-2.5079262,5.0344076,8.225879,0.0,0.0,0.0
UncalGyro,1650242391350,365687580885033,0.24780695,0.10865689,0.044874232,0.003772056,-0.0010888841,0.0035041608
UncalMag,1650242391357,365687587656283,12.566,60.634,-34.5626,37.153934,43.69474,-8.146272
UncalAccel,1650242391360,365687590935815,-2.4887726,5.1876364,7.8428063,0.0,0.0,0.0
UncalGyro,1650242391360,365687590935815,0.25952485,0.14381059,0.04700476,0.003772056,-0.0010888841,0.0035041608
UncalMag,1650242391367,365687597656283,12.5171995,60.634,-34.6236,37.153934,43.69474,-8.146272
UncalGyro,1650242391370,365687600986596,0.22863221,0.13528848,0.03315633,0.003772056,-0.0010888841,0.0035041608
UncalAccel,1650242391370,365687600986596,-2.541445,5.4126916,7.5363483,0.0,0.0,0.0
UncalMag,1650242391377,365687607656283,12.5171995,60.585197,-34.6236,37.153934,43.69474,-8.146272
OrientationDeg,1650242391371,365687600986596,358,17,-32
UncalAccel,1650242391382,365687611037377,-2.6084828,5.5467668,7.3448124,0.0,0.0,0.0
UncalGyro,1650242391382,365687611037377,0.17004271,0.080960035,0.0022636852,0.003772056,-0.0010888841,0.0035041608
UncalMag,1650242391387,365687617656283,12.5538,60.5242,-34.6846,37.153934,43.69474,-8.146272
OrientationDeg,1650242391382,365687611037377,358,18,-33
UncalAccel,1650242391391,365687621088158,-2.64679,5.599439,7.258621,0.0,0.0,0.0
UncalGyro,1650242391391,365687621088158,0.07736477,0.009587373,-0.029694224,0.003772056,-0.0010888841,0.0035041608
UncalMag,1650242391397,365687627656283,12.6147995,60.4876,-34.7212,37.153934,43.69474,-8.146272
OrientationDeg,1650242391391,365687621088158,359,18,-33
UncalAccel,1650242391401,365687631138992,-2.7042508,5.6281695,7.301717,0.0,0.0,0.0
UncalGyro,1650242391401,365687631138992,-0.027031064,-0.049002126,-0.041412123,0.003772056,-0.0010888841,0.0035041608
UncalMag,1650242391407,365687637656283,12.7123995,60.4754,-34.7944,37.153934,43.69474,-8.146272
OrientationDeg,1650242391401,365687631138992,359,18,-34
UncalAccel,1650242391411,365687641189825,-2.742558,5.6185927,7.459734,0.0,0.0,0.0
UncalGyro,1650242391411,365687641189825,-0.10692584,-0.092677936,-0.04354265,0.003772056,-0.0010888841,0.0035041608
UncalMag,1650242391417,365687647656283,12.6026,60.438797,-34.8432,37.153934,43.69474,-8.146272
OrientationDeg,1650242391411,365687641189825,359,19,-34
UncalAccel,1650242391422,365687651240658,-2.7760768,5.5419784,7.6943655,0.0,0.0,0.0
UncalGyro,1650242391421,365687651240658,-0.1431448,-0.112917945,-0.038216334,0.003772056,-0.0010888841,0.0035041608
UncalMag,1650242391427,365687657656283,12.5904,60.4144,-34.8798,37.153934,43.69474,-8.146272
OrientationDeg,1650242391421,365687651240658,359,19,-34
UncalAccel,1650242391431,365687661291492,-2.7665,5.450999,7.9289975,0.0,0.0,0.0
UncalGyro,1650242391431,365687661291492,-0.13355742,-0.103330575,-0.027563697,0.003772056,-0.0010888841,0.0035041608
UncalMag,1650242391438,365687667656283,12.5294,60.4754,-34.8066,37.153934,43.69474,-8.146272
OrientationDeg,1650242391431,365687661291492,359,19,-33
UncalAccel,1650242391441,365687671342325,-2.7665,5.383961,8.106169,0.0,0.0,0.0
UncalGyro,1650242391441,365687671342325,-0.08668583,-0.060720026,-0.009454215,0.003772056,-0.0010888841,0.0035041608
UncalMag,1650242391447,365687677656283,12.5416,60.4632,-34.709,37.153934,43.69474,-8.146272
OrientationDeg,1650242391442,365687671342325,359,18,-33
UncalAccel,1650242391451,365687681393158,-2.7808652,5.369596,8.173206,0.0,0.0,0.0
UncalGyro,1650242391452,365687681393158,-0.013182637,-0.0042610546,0.011851058,0.003772056,-0.0010888841,0.0035041608
UncalMag,1650242391457,365687687656283,12.5294,60.511997,-34.6968,37.153934,43.69474,-8.146272
OrientationDeg,1650242391451,365687681393158,359,18,-33
UncalGyro,1650242391461,365687691443992,0.06564687,0.036218964,0.028895276,0.003772056,-0.0010888841,0.0035041608
UncalAccel,1650242391461,365687691443992,-2.7856536,5.379173,8.106169,0.0,0.0,0.0
UncalMag,1650242391467,365687697656283,12.4928,60.572998,-34.6846,37.153934,43.69474,-8.146272
UncalAccel,1650242391471,365687701494825,-2.7760768,5.403115,7.9529395,0.0,0.0,0.0
UncalGyro,1650242391471,365687701494825,0.124236375,0.05006739,0.038482647,0.003772056,-0.0010888841,0.0035041608
OrientationDeg,1650242391461,365687691443992,359,18,-33
UncalMag,1650242391477,365687707656283,12.480599,60.572998,-34.6358,37.153934,43.69474,-8.146272
OrientationDeg,1650242391471,365687701494825,359,19,-33
UncalAccel,1650242391481,365687711545658,-2.7377696,5.441422,7.74225,0.0,0.0,0.0
UncalGyro,1650242391481,365687711545658,0.14234586,0.03728423,0.038482647,0.003772056,-0.0010888841,0.0035041608
UncalMag,1650242391487,365687717656283,12.382999,60.5364,-34.526,37.153934,43.69474,-8.146272
OrientationDeg,1650242391481,365687711545658,359,19,-33
UncalAccel,1650242391491,365687721596492,-2.6515784,5.465364,7.555502,0.0,0.0,0.0
UncalGyro,1650242391491,365687721596492,0.11891005,0.005326318,0.031025803,0.003772056,-0.0010888841,0.0035041608
UncalMag,1650242391498,365687727656283,12.4196,60.5486,-34.5016,37.153934,43.69474,-8.146272
OrientationDeg,1650242391492,365687721596492,359,19,-33
UncalAccel,1650242391502,365687731647325,-2.5797524,5.474941,7.450157,0.0,0.0,0.0
UncalGyro,1650242391502,365687731647325,0.07097319,-0.030892646,0.01824264,0.003772056,-0.0010888841,0.0035041608
UncalMag,1650242391507,365687737656283,12.4318,60.511997,-34.5016,37.153934,43.69474,-8.146272
OrientationDeg,1650242391501,365687731647325,359,19,-33
UncalAccel,1650242391511,365687741698158,-2.5222914,5.4605756,7.4405804,0.0,0.0,0.0
UncalGyro,1650242391511,365687741698158,0.017710008,-0.056458972,1.3315796E-4,0.003772056,-0.0010888841,0.0035041608
UncalMag,1650242391517,365687747656283,12.4318,60.4632,-34.526,37.153934,43.69474,-8.146272
OrientationDeg,1650242391511,365687741698158,359,19,-33
UncalAccel,1650242391521,365687751748992,-2.517503,5.450999,7.5028296,0.0,0.0,0.0
UncalGyro,1650242391522,365687751748992,-0.023835273,-0.06498108,-0.015845796,0.003772056,-0.0010888841,0.0035041608
UncalMag,1650242391527,365687757656283,12.4318,60.4754,-34.5382,37.153934,43.69474,-8.146272
OrientationDeg,1650242391521,365687751748992,359,18,-33
UncalAccel,1650242391531,365687761799825,-2.6084828,5.407903,7.617751,0.0,0.0,0.0
UncalGyro,1650242391531,365687761799825,-0.044075284,-0.053263184,-0.021172116,0.003772056,-0.0010888841,0.0035041608
OrientationDeg,1650242391531,365687761799825,359,18,-33
UncalMag,1650242391537,365687767656283,12.3708,60.426598,-34.5016,37.153934,43.69474,-8.146272
UncalGyro,1650242391542,365687771850658,-0.044075284,-0.034088437,-0.015845796,0.003772056,-0.0010888841,0.0035041608
UncalAccel,1650242391542,365687771850658,-2.7042508,5.3743844,7.74225,0.0,0.0,0.0
UncalMag,1650242391548,365687777656283,12.346399,60.426598,-34.4894,37.153934,43.69474,-8.146272
OrientationDeg,1650242391542,365687771850658,359,18,-33
UncalAccel,1650242391552,365687781901492,-2.7665,5.355231,7.8428063,0.0,0.0,0.0
UncalGyro,1650242391552,365687781901492,-0.029161593,-0.014913691,-0.008388951,0.003772056,-0.0010888841,0.0035041608
UncalMag,1650242391557,365687787656283,12.285399,60.39,-34.5626,37.153934,43.69474,-8.146272
OrientationDeg,1650242391551,365687781901492,359,18,-33
UncalGyro,1650242391561,365687791952325,-0.005725792,-0.005326318,-0.006258424,0.003772056,-0.0010888841,0.0035041608
UncalAccel,1650242391561,365687791952325,-2.8335378,5.336077,7.9146323,0.0,0.0,0.0
UncalMag,1650242391567,365687797656283,12.2,60.353397,-34.513798,37.153934,43.69474,-8.146272
OrientationDeg,1650242391561,365687791952325,359,19,-33
UncalAccel,1650242391572,365687802003158,-2.8766334,5.3408656,7.924209,0.0,0.0,0.0
UncalGyro,1650242391572,365687802003158,0.020905798,-0.0074568456,-0.0051931604,0.003772056,-0.0010888841,0.0035041608
UncalMag,1650242391577,365687807656283,12.1634,60.3656,-34.4528,37.153934,43.69474,-8.146272
OrientationDeg,1650242391572,365687802003158,359,19,-33
UncalAccel,1650242391582,365687812053992,-2.8862102,5.3504424,7.885902,0.0,0.0,0.0
UncalGyro,1650242391582,365687812053992,0.044341598,-0.019174745,-0.0041278964,0.003772056,-0.0010888841,0.0035041608
UncalMag,1650242391587,365687817656283,12.1146,60.3656,-34.4284,37.153934,43.69474,-8.146272
OrientationDeg,1650242391583,365687812053992,359,19,-33
UncalAccel,1650242391592,365687822104825,-2.8766334,5.369596,7.8188643,0.0,0.0,0.0
UncalGyro,1650242391592,365687822104825,0.054994237,-0.026631592,0.0011984216,0.003772056,-0.0010888841,0.0035041608
UncalMag,1650242391597,365687827656283,12.090199,60.426598,-34.465,37.153934,43.69474,-8.146272
OrientationDeg,1650242391593,365687822104825,359,19,-33
UncalAccel,1650242391603,365687832155658,-2.8191724,5.403115,7.7183075,0.0,0.0,0.0
UncalGyro,1650242391603,365687832155658,0.058190025,-0.028762119,0.013981585,0.003772056,-0.0010888841,0.0035041608
UncalMag,1650242391607,365687837656283,12.053599,60.4144,-34.404,37.153934,43.69474,-8.146272
OrientationDeg,1650242391603,365687832155658,359,19,-33
UncalAccel,1650242391613,365687842206492,-2.7281928,5.4126916,7.6321163,0.0,0.0,0.0
UncalGyro,1650242391612,365687842206492,0.054994237,-0.027696855,0.021438431,0.003772056,-0.0010888841,0.0035041608
UncalMag,1650242391617,365687847656283,12.1146,60.438797,-34.3918,37.153934,43.69474,-8.146272
OrientationDeg,1650242391612,365687842206492,359,19,-33
UncalAccel,1650242391622,365687852257325,-2.6372132,5.427057,7.5842323,0.0,0.0,0.0
UncalGyro,1650242391622,365687852257325,0.044341598,-0.021305272,0.022503695,0.003772056,-0.0010888841,0.0035041608
UncalMag,1650242391627,365687857656283,12.1024,60.39,-34.3308,37.153934,43.69474,-8.146272
UncalAccel,1650242391632,365687862308158,-2.5893292,5.407903,7.53156,0.0,0.0,0.0
UncalGyro,1650242391632,365687862308158,0.031558435,-0.0117179,0.017177377,0.003772056,-0.0010888841,0.0035041608
OrientationDeg,1650242391622,365687852257325,359,19,-33
UncalMag,1650242391637,365687867656283,12.1268,60.4022,-34.2698,37.153934,43.69474,-8.146272
OrientationDeg,1650242391632,365687862308158,359,19,-33
UncalAccel,1650242391642,365687872358992,-2.5605986,5.407903,7.4932528,0.0,0.0,0.0
UncalGyro,1650242391642,365687872358992,0.01238369,-0.0042610546,0.010785795,0.003772056,-0.0010888841,0.0035041608
UncalMag,1650242391647,365687877656283,12.1634,60.438797,-34.404,37.153934,43.69474,-8.146272
OrientationDeg,1650242391642,365687872358992,359,19,-33
UncalAccel,1650242391652,365687882409825,-2.5893292,5.3983264,7.521983,0.0,0.0,0.0
UncalGyro,1650242391653,365687882409825,-0.009986847,-0.0074568456,0.0022636852,0.003772056,-0.0010888841,0.0035041608
UncalMag,1650242391657,365687887656283,12.090199,60.4144,-34.5016,37.153934,43.69474,-8.146272
OrientationDeg,1650242391653,365687882409825,359,19,-33
UncalAccel,1650242391662,365687892460658,-2.6372132,5.393538,7.5842323,0.0,0.0,0.0
UncalGyro,1650242391662,365687892460658,-0.02809633,-0.019174745,-0.0051931604,0.003772056,-0.0010888841,0.0035041608
UncalMag,1650242391667,365687897656283,12.090199,60.4022,-34.5748,37.153934,43.69474,-8.146272
OrientationDeg,1650242391662,365687892460658,359,19,-33
UncalAccel,1650242391672,365687902511492,-2.670732,5.3648076,7.641693,0.0,0.0,0.0
UncalGyro,1650242391672,365687902511492,-0.036618438,-0.035153702,-0.008388951,0.003772056,-0.0010888841,0.0035041608
UncalMag,1650242391678,365687907656283,12.0658,60.3656,-34.5504,37.153934,43.69474,-8.146272
OrientationDeg,1650242391672,365687902511492,359,19,-33
UncalAccel,1650242391682,365687912562325,-2.670732,5.336077,7.699154,0.0,0.0,0.0
UncalGyro,1650242391682,365687912562325,-0.037683703,-0.045806337,-0.009454215,0.003772056,-0.0010888841,0.0035041608
UncalMag,1650242391687,365687917656283,11.9925995,60.3656,-34.6602,37.153934,43.69474,-8.146272
OrientationDeg,1650242391682,365687912562325,359,19,-33
UncalAccel,1650242391692,365687922613158,-2.6755204,5.3169236,7.7614036,0.0,0.0,0.0
UncalGyro,1650242391693,365687922613158,-0.030226856,-0.042610545,-0.006258424,0.003772056,-0.0010888841,0.0035041608
UncalMag,1650242391697,365687927656283,12.0048,60.3778,-34.7334,37.153934,43.69474,-8.146272
OrientationDeg,1650242391692,365687922613158,359,19,-33
UncalAccel,1650242391702,365687932663992,-2.670732,5.312135,7.7997108,0.0,0.0,0.0
UncalGyro,1650242391702,365687932663992,-0.016378429,-0.03302317,-0.0041278964,0.003772056,-0.0010888841,0.0035041608
UncalMag,1650242391708,365687937656283,12.053599,60.3778,-34.7944,37.153934,43.69474,-8.146272
OrientationDeg,1650242391702,365687932663992,359,19,-33
UncalAccel,1650242391713,365687942714825,-2.6324248,5.2929816,7.8092875,0.0,0.0,0.0
UncalGyro,1650242391712,365687942714825,-0.0014647375,-0.025566328,-0.0019973693,0.003772056,-0.0010888841,0.0035041608
UncalMag,1650242391717,365687947656283,12.0292,60.438797,-34.830997,37.153934,43.69474,-8.146272
OrientationDeg,1650242391713,365687942714825,359,18,-33
UncalAccel,1650242391722,365687952765658,-2.5893292,5.2929816,7.828441,0.0,0.0,0.0
UncalGyro,1650242391722,365687952765658,0.010253162,-0.015978955,-0.0030626329,0.003772056,-0.0010888841,0.0035041608
UncalMag,1650242391728,365687957656283,11.955999,60.451,-34.745598,37.153934,43.69474,-8.146272
OrientationDeg,1650242391723,365687952765658,359,18,-33
UncalAccel,1650242391732,365687962816492,-2.5462334,5.331289,7.804499,0.0,0.0,0.0
UncalGyro,1650242391732,365687962816492,0.021971062,-0.008522109,-0.009454215,0.003772056,-0.0010888841,0.0035041608
UncalMag,1650242391737,365687967656283,12.0048,60.4876,-34.6236,37.153934,43.69474,-8.146272
OrientationDeg,1650242391732,365687962816492,359,18,-33
UncalAccel,1650242391742,365687972867325,-2.541445,5.345654,7.7614036,0.0,0.0,0.0
UncalGyro,1650242391742,365687972867325,0.030493172,0.0021305273,-0.015845796,0.003772056,-0.0010888841,0.0035041608
UncalMag,1650242391747,365687977656283,11.9925995,60.511997,-34.5748,37.153934,43.69474,-8.146272
OrientationDeg,1650242391742,365687972867325,359,18,-33
UncalAccel,1650242391753,365687982918158,-2.565387,5.3743844,7.7183075,0.0,0.0,0.0
UncalGyro,1650242391753,365687982918158,0.0326237,0.014913691,-0.021172116,0.003772056,-0.0010888841,0.0035041608
UncalMag,1650242391757,365687987656283,11.9804,60.499798,-34.586998,37.153934,43.69474,-8.146272
OrientationDeg,1650242391752,365687982918158,359,18,-33
UncalAccel,1650242391762,365687992968992,-2.622848,5.3983264,7.689577,0.0,0.0,0.0
UncalGyro,1650242391763,365687992968992,0.029427908,0.0234358,-0.019041587,0.003772056,-0.0010888841,0.0035041608
UncalMag,1650242391767,365687997656283,12.0048,60.499798,-34.5626,37.153934,43.69474,-8.146272
OrientationDeg,1650242391763,365687992968992,359,18,-33
UncalAccel,1650242391773,365688003019825,-2.6563668,5.4126916,7.7087307,0.0,0.0,0.0
UncalGyro,1650242391774,365688003019825,0.019840535,0.013848428,-0.017976323,0.003772056,-0.0010888841,0.0035041608
OrientationDeg,1650242391773,365688003019825,359,18,-33
UncalMag,1650242391777,365688007656283,11.9925995,60.4754,-34.5016,37.153934,43.69474,-8.146272
UncalAccel,1650242391783,365688013070658,-2.6850972,5.41748,7.732673,0.0,0.0,0.0
UncalGyro,1650242391783,365688013070658,0.009187899,-0.0021305273,-0.023302643,0.003772056,-0.0010888841,0.0035041608
UncalMag,1650242391788,365688017656283,12.0048,60.4754,-34.5016,37.153934,43.69474,-8.146272
OrientationDeg,1650242391783,365688013070658,359,19,-33
UncalAccel,1650242391793,365688023121492,-2.7234044,5.4462104,7.732673,0.0,0.0,0.0
UncalGyro,1650242391793,365688023121492,-3.9947388E-4,-0.013848428,-0.024367906,0.003772056,-0.0010888841,0.0035041608
UncalMag,1650242391798,365688027656283,12.017,60.4144,-34.5016,37.153934,43.69474,-8.146272
OrientationDeg,1650242391793,365688023121492,359,19,-33
UncalAccel,1650242391803,365688033172325,-2.7138276,5.450999,7.7614036,0.0,0.0,0.0
UncalGyro,1650242391803,365688033172325,-0.002530001,-0.014913691,-0.020106852,0.003772056,-0.0010888841,0.0035041608
UncalMag,1650242391807,365688037656283,12.090199,60.426598,-34.4772,37.153934,43.69474,-8.146272
OrientationDeg,1650242391803,365688033172325,359,19,-33
UncalAccel,1650242391813,365688043223158,-2.6994624,5.4126916,7.780557,0.0,0.0,0.0
UncalGyro,1650242391814,365688043223158,-0.0035952649,-0.0117179,-0.01691106,0.003772056,-0.0010888841,0.0035041608
UncalMag,1650242391817,365688047656283,12.1146,60.3656,-34.526,37.153934,43.69474,-8.146272
OrientationDeg,1650242391813,365688043223158,359,19,-33
UncalAccel,1650242391823,365688053273992,-2.7138276,5.403115,7.7997108,0.0,0.0,0.0
UncalGyro,1650242391823,365688053273992,-0.0035952649,-0.020240009,-0.019041587,0.003772056,-0.0010888841,0.0035041608
UncalMag,1650242391827,365688057656283,12.187799,60.341198,-34.5626,37.153934,43.69474,-8.146272
OrientationDeg,1650242391824,365688053273992,359,19,-33
UncalAccel,1650242391833,365688063324825,-2.7281928,5.403115,7.8188643,0.0,0.0,0.0
UncalGyro,1650242391834,365688063324825,-0.0014647375,-0.03834949,-0.024367906,0.003772056,-0.0010888841,0.0035041608
UncalMag,1650242391838,365688067656283,12.2366,60.3168,-34.526,37.153934,43.69474,-8.146272
OrientationDeg,1650242391833,365688063324825,359,19,-33
UncalGyro,1650242391843,365688073375658,0.0017310535,-0.03834949,-0.027563697,0.003772056,-0.0010888841,0.0035041608
UncalAccel,1650242391843,365688073375658,-2.7377696,5.3983264,7.814076,0.0,0.0,0.0
UncalMag,1650242391848,365688077656283,12.2366,60.3046,-34.526,37.153934,43.69474,-8.146272
UncalAccel,1650242391853,365688083426492,-2.742558,5.393538,7.7853456,0.0,0.0,0.0
UncalGyro,1650242391854,365688083426492,0.011318427,-0.034088437,-0.024367906,0.003772056,-0.0010888841,0.0035041608
UncalMag,1650242391857,365688087656283,12.2122,60.2924,-34.513798,37.153934,43.69474,-8.146272
OrientationDeg,1650242391843,365688073375658,359,19,-33
OrientationDeg,1650242391854,365688083426492,359,19,-33
UncalAccel,1650242391863,365688093477325,-2.7329812,5.3983264,7.7709804,0.0,0.0,0.0
UncalGyro,1650242391863,365688093477325,0.021971062,-0.028762119,-0.02223738,0.003772056,-0.0010888841,0.0035041608
UncalMag,1650242391868,365688097656283,12.139,60.280197,-34.465,37.153934,43.69474,-8.146272
OrientationDeg,1650242391864,365688093477325,359,19,-33
UncalAccel,1650242391873,365688103528158,-2.7377696,5.4126916,7.751827,0.0,0.0,0.0
UncalGyro,1650242391873,365688103528158,0.03581949,-0.019174745,-0.021172116,0.003772056,-0.0010888841,0.0035041608
UncalMag,1650242391877,365688107656283,12.151199,60.267998,-34.3918,37.153934,43.69474,-8.146272
OrientationDeg,1650242391874,365688103528158,359,19,-33
UncalAccel,1650242391883,365688113578992,-2.7329812,5.4366336,7.689577,0.0,0.0,0.0
UncalGyro,1650242391884,365688113578992,0.04221107,-0.019174745,-0.014780533,0.003772056,-0.0010888841,0.0035041608
UncalMag,1650242391887,365688117656283,12.1146,60.267998,-34.404,37.153934,43.69474,-8.146272
OrientationDeg,1650242391883,365688113578992,359,19,-33
UncalAccel,1650242391893,365688123629825,-2.7090392,5.4605756,7.65127,0.0,0.0,0.0
UncalGyro,1650242391894,365688123629825,0.039015282,-0.0117179,-0.009454215,0.003772056,-0.0010888841,0.0035041608
UncalMag,1650242391897,365688127656283,12.139,60.267998,-34.355198,37.153934,43.69474,-8.146272
OrientationDeg,1650242391893,365688123629825,359,19,-33
UncalGyro,1650242391903,365688133680658,0.030493172,-0.003195791,-0.006258424,0.003772056,-0.0010888841,0.0035041608
UncalAccel,1650242391903,365688133680658,-2.6850972,5.474941,7.617751,0.0,0.0,0.0
UncalMag,1650242391908,365688137656283,12.090199,60.2558,-34.3064,37.153934,43.69474,-8.146272
OrientationDeg,1650242391903,365688133680658,359,19,-33
UncalGyro,1650242391914,365688143731492,0.019840535,-0.0,-0.0041278964,0.003772056,-0.0010888841,0.0035041608
UncalAccel,1650242391913,365688143731492,-2.6803088,5.474941,7.5842323,0.0,0.0,0.0
UncalMag,1650242391917,365688147656283,12.0658,60.2192,-34.281998,37.153934,43.69474,-8.146272
OrientationDeg,1650242391913,365688143731492,359,19,-33
UncalAccel,1650242391923,365688153782325,-2.6994624,5.474941,7.593809,0.0,0.0,0.0
UncalGyro,1650242391924,365688153782325,0.005992108,-0.003195791,-0.0030626329,0.003772056,-0.0010888841,0.0035041608
UncalMag,1650242391927,365688157656283,12.078,60.2192,-34.2332,37.153934,43.69474,-8.146272
OrientationDeg,1650242391923,365688153782325,359,19,-33
UncalAccel,1650242391933,365688163833158,-2.7042508,5.455787,7.6225395,0.0,0.0,0.0
UncalGyro,1650242391933,365688163833158,-0.00785632,-0.009587373,-0.0051931604,0.003772056,-0.0010888841,0.0035041608
UncalMag,1650242391937,365688167656283,12.0414,60.194798,-34.2576,37.153934,43.69474,-8.146272
OrientationDeg,1650242391933,365688163833158,359,19,-33
UncalGyro,1650242391943,365688173883992,-0.016378429,-0.014913691,-0.006258424,0.003772056,-0.0010888841,0.0035041608
UncalAccel,1650242391943,365688173883992,-2.6994624,5.4366336,7.6800003,0.0,0.0,0.0
UncalMag,1650242391947,365688177656283,12.090199,60.1826,-34.2454,37.153934,43.69474,-8.146272
OrientationDeg,1650242391943,365688173883992,359,19,-33
UncalGyro,1650242391953,365688183934825,-0.013182637,-0.017044218,-0.008388951,0.003772056,-0.0010888841,0.0035041608
UncalAccel,1650242391953,365688183934825,-2.7090392,5.3983264,7.7183075,0.0,0.0,0.0
UncalMag,1650242391957,365688187656283,12.078,60.194798,-34.221,37.153934,43.69474,-8.146272
OrientationDeg,1650242391953,365688183934825,354,19,-33
UncalAccel,1650242391964,365688193985658,-2.7329812,5.383961,7.74225,0.0,0.0,0.0
UncalGyro,1650242391963,365688193985658,-3.9947388E-4,-0.0117179,-0.008388951,0.003772056,-0.0010888841,0.0035041608
UncalMag,1650242391968,365688197656283,12.090199,60.1582,-34.221,37.153934,43.69474,-8.146272
UncalAccel,1650242391974,365688204036492,-2.7808652,5.403115,7.74225,0.0,0.0,0.0
UncalGyro,1650242391974,365688204036492,0.017710008,0.0010652636,-0.006258424,0.003772056,-0.0010888841,0.0035041608
UncalMag,1650242391977,365688207656283,12.0292,60.207,-34.2332,37.153934,43.69474,-8.146272
OrientationDeg,1650242391963,365688193985658,353,19,-33
OrientationDeg,1650242391974,365688204036492,351,19,-33
UncalGyro,1650242391984,365688214087325,0.029427908,0.010652636,0.003328949,0.003772056,-0.0010888841,0.0035041608
UncalAccel,1650242391984,365688214087325,-2.8191724,5.407903,7.727885,0.0,0.0,0.0
UncalMag,1650242391988,365688217656283,12.0414,60.207,-34.2454,37.153934,43.69474,-8.146272
OrientationDeg,1650242391984,365688214087325,351,19,-33
UncalAccel,1650242391994,365688224138158,-2.8191724,5.427057,7.6943655,0.0,0.0,0.0
UncalGyro,1650242391995,365688224138158,0.031558435,0.017044218,0.015046849,0.003772056,-0.0010888841,0.0035041608
UncalMag,1650242391997,365688227656283,12.090199,60.2314,-34.2332,37.153934,43.69474,-8.146272
OrientationDeg,1650242391994,365688224138158,350,19,-33
UncalAccel,1650242392004,365688234188992,-2.7760768,5.4462104,7.665635,0.0,0.0,0.0
UncalGyro,1650242392005,365688234188992,0.026232118,0.013848428,0.020373167,0.003772056,-0.0010888841,0.0035041608
UncalMag,1650242392008,365688237656283,12.078,60.207,-34.2942,37.153934,43.69474,-8.146272
OrientationDeg,1650242392004,365688234188992,350,19,-33
UncalGyro,1650242392015,365688244239825,0.014514217,0.009587373,0.016112113,0.003772056,-0.0010888841,0.0035041608
UncalAccel,1650242392015,365688244239825,-2.742558,5.4462104,7.65127,0.0,0.0,0.0
UncalMag,1650242392017,365688247656283,12.017,60.2314,-34.3186,37.153934,43.69474,-8.146272
OrientationDeg,1650242392014,365688244239825,350,19,-33
UncalAccel,1650242392024,365688254290658,-2.7329812,5.441422,7.65127,0.0,0.0,0.0
UncalGyro,1650242392024,365688254290658,-0.0014647375,-0.0074568456,0.00972053,0.003772056,-0.0010888841,0.0035041608
UncalMag,1650242392027,365688257656283,12.0048,60.2314,-34.355198,37.153934,43.69474,-8.146272
OrientationDeg,1650242392024,365688254290658,349,19,-33
UncalAccel,1650242392034,365688264341492,-2.7234044,5.407903,7.65127,0.0,0.0,0.0
UncalGyro,1650242392034,365688264341492,-0.01957422,-0.024501063,0.003328949,0.003772056,-0.0010888841,0.0035041608
UncalMag,1650242392038,365688267656283,11.9438,60.207,-34.513798,37.153934,43.69474,-8.146272
OrientationDeg,1650242392034,365688264341492,349,19,-33
UncalGyro,1650242392044,365688274392325,-0.036618438,-0.034088437,0.0011984216,0.003772056,-0.0010888841,0.0035041608
UncalAccel,1650242392044,365688274392325,-2.7090392,5.393538,7.7183075,0.0,0.0,0.0
UncalMag,1650242392048,365688277656283,11.8706,60.1582,-34.526,37.153934,43.69474,-8.146272
OrientationDeg,1650242392044,365688274392325,349,19,-33
UncalAccel,1650242392054,365688284443158,-2.7042508,5.383961,7.780557,0.0,0.0,0.0
UncalGyro,1650242392054,365688284443158,-0.038748965,-0.040480018,-0.0019973693,0.003772056,-0.0010888841,0.0035041608
UncalMag,1650242392057,365688287656283,11.858399,60.0972,-34.648,37.153934,43.69474,-8.146272
OrientationDeg,1650242392054,365688284443158,349,19,-33
UncalAccel,1650242392065,365688294493992,-2.6850972,5.345654,7.8188643,0.0,0.0,0.0
UncalGyro,1650242392064,365688294493992,-0.0259658,-0.041545283,-0.0030626329,0.003772056,-0.0010888841,0.0035041608
UncalMag,1650242392067,365688297656283,11.760799,60.085,-34.672398,37.153934,43.69474,-8.146272
OrientationDeg,1650242392065,365688294493992,349,19,-33
UncalAccel,1650242392074,365688304544825,-2.6659436,5.345654,7.8428063,0.0,0.0,0.0
UncalGyro,1650242392074,365688304544825,-0.0035952649,-0.022370536,0.003328949,0.003772056,-0.0010888841,0.0035041608
UncalMag,1650242392077,365688307656283,11.7242,60.085,-34.745598,37.153934,43.69474,-8.146272
OrientationDeg,1650242392074,365688304544825,349,19,-33
UncalAccel,1650242392084,365688314595658,-2.6563668,5.345654,7.8332295,0.0,0.0,0.0
UncalGyro,1650242392085,365688314595658,0.026232118,0.0074568456,0.012916322,0.003772056,-0.0010888841,0.0035041608
UncalMag,1650242392088,365688317656283,11.6998,60.1338,-34.7578,37.153934,43.69474,-8.146272
OrientationDeg,1650242392084,365688314595658,349,19,-33
UncalAccel,1650242392094,365688324646492,-2.64679,5.355231,7.7997108,0.0,0.0,0.0
UncalGyro,1650242392095,365688324646492,0.05392897,0.03195791,0.020373167,0.003772056,-0.0010888841,0.0035041608
UncalMag,1650242392097,365688327656283,11.712,60.1338,-34.745598,37.153934,43.69474,-8.146272
OrientationDeg,1650242392094,365688324646492,349,19,-33
UncalGyro,1650242392104,365688334697325,0.07097319,0.040480018,0.022503695,0.003772056,-0.0010888841,0.0035041608
UncalAccel,1650242392105,365688334697325,-2.6659436,5.3743844,7.7374616,0.0,0.0,0.0
UncalMag,1650242392108,365688337656283,11.6388,60.1582,-34.7334,37.153934,43.69474,-8.146272
OrientationDeg,1650242392104,365688334697325,349,19,-33
UncalGyro,1650242392114,365688344748158,0.068842664,0.034088437,0.021438431,0.003772056,-0.0010888841,0.0035041608
UncalAccel,1650242392114,365688344748158,-2.6563668,5.407903,7.6560583,0.0,0.0,0.0
UncalMag,1650242392117,365688347656283,11.663199,60.1826,-34.709,37.153934,43.69474,-8.146272
OrientationDeg,1650242392114,365688344748158,349,19,-33
UncalGyro,1650242392124,365688354798992,0.050733183,0.0234358,0.019307904,0.003772056,-0.0010888841,0.0035041608
UncalAccel,1650242392124,365688354798992,-2.64679,5.4222684,7.5746555,0.0,0.0,0.0
UncalMag,1650242392127,365688357656283,11.712,60.2314,-34.7944,37.153934,43.69474,-8.146272
OrientationDeg,1650242392125,365688354798992,348,19,-33
UncalAccel,1650242392134,365688364849825,-2.6420016,5.4366336,7.5507135,0.0,0.0,0.0
UncalGyro,1650242392134,365688364849825,0.020905798,0.013848428,0.015046849,0.003772056,-0.0010888841,0.0035041608
Status,0,106,0,1,1,1575420032,19.90,194.00,7.00,1,1,0,16.3
Status,0,106,1,1,3,1575420032,19.10,218.00,51.00,1,1,0,15.5
Status,0,106,2,1,4,1575420032,17.20,5.00,57.00,1,1,0,13.6
Status,0,106,3,1,7,1575420032,27.70,294.00,15.00,1,1,0,24.1
Status,0,106,4,1,8,1575420032,26.40,147.00,42.00,1,1,0,22.8
Status,0,106,5,1,9,1575420032,15.40,332.00,29.00,0,1,0,11.799999
Status,0,106,6,1,16,1575420032,15.20,28.00,36.00,1,1,0,11.6
Status,0,106,7,1,21,1575420032,17.90,167.00,7.00,0,1,0,14.299999
Status,0,106,8,1,22,1575420032,12.30,124.00,6.00,0,1,0,8.700001
Status,0,106,9,1,27,1575420032,25.00,96.00,41.00,1,1,0,21.4
Status,0,106,10,1,26,1575420032,0.00,37.00,6.00,0,1,0,0.0
Status,0,106,11,4,195,1575420032,17.60,94.00,13.00,1,1,0,14.0
Status,0,106,12,4,196,1575420032,17.30,134.00,18.00,1,0,0,13.699999
Status,0,106,13,4,194,1575420032,0.00,48.00,24.00,0,1,0,0.0
Status,0,106,14,3,10,1598062464,22.30,269.00,29.00,1,1,0,18.3
Status,0,106,15,3,6,1599750016,16.20,128.00,88.00,0,1,0,12.200001
Status,0,106,16,3,9,1600875008,18.90,329.00,41.00,0,1,0,14.9
Status,0,106,17,3,5,1602562560,20.70,151.00,23.00,1,1,0,16.7
Status,0,106,18,3,7,1604812544,20.60,335.00,36.00,0,1,0,16.6
Status,0,106,19,3,18,1600312448,0.00,0.00,0.00,0,1,0,0.0
Status,0,106,20,3,20,1603124992,0.00,165.00,1.00,0,1,0,0.0
Status,0,106,21,3,19,1603687552,0.00,111.00,6.00,0,1,0,0.0
Status,0,106,22,5,60,1561097984,27.40,180.00,72.00,0,1,0,23.099998
Status,0,106,23,5,43,1561097984,16.80,103.00,21.00,0,1,0,12.499999
Status,0,106,24,5,41,1561097984,19.60,171.00,62.00,1,1,0,15.3
Status,0,106,25,5,40,1561097984,24.00,45.00,56.00,1,1,0,19.7
Status,0,106,26,5,39,1561097984,19.30,82.00,38.00,1,1,0,14.999999
Status,0,106,27,5,37,1561097984,27.20,288.00,35.00,1,1,0,22.900002
Status,0,106,28,5,32,1561097984,23.00,308.00,54.00,1,1,0,18.7
Status,0,106,29,5,28,1561097984,19.40,159.00,20.00,0,1,0,15.099999
Status,0,106,30,5,23,1561097984,22.40,358.00,42.00,0,1,0,18.099998
Status,0,106,31,5,16,1561097984,11.20,68.00,42.00,0,1,0,6.8999996
Status,0,106,32,5,13,1561097984,17.90,178.00,13.00,0,1,0,13.599999
Status,0,106,33,5,10,1561097984,10.90,64.00,79.00,1,1,0,6.5999994
Status,0,106,34,5,9,1561097984,12.50,36.00,48.00,0,1,0,8.2
Status,0,106,35,5,7,1561097984,20.90,50.00,65.00,1,1,0,16.599998
Status,0,106,36,5,6,1561097984,16.50,64.00,44.00,0,1,0,12.2
Status,0,106,37,5,3,1561097984,23.10,113.00,51.00,1,1,0,18.8
Status,0,106,38,5,2,1561097984,23.90,165.00,73.00,1,1,0,19.599998
Status,0,106,39,5,1,1561097984,0.00,96.00,16.00,0,1,0,0.0
Status,0,106,40,5,4,1561097984,0.00,92.00,1.00,0,1,0,0.0
Status,0,106,41,5,5,1561097984,0.00,239.00,60.00,0,1,0,0.0
Status,0,106,42,5,8,1561097984,0.00,165.00,4.00,0,1,0,0.0
Status,0,106,43,5,11,1561097984,0.00,79.00,9.00,0,1,0,0.0
Status,0,106,44,5,20,1561097984,0.00,323.00,3.00,0,1,0,0.0
Status,0,106,45,5,25,1561097984,0.00,43.00,13.00,0,1,0,0.0
Status,0,106,46,5,27,1561097984,0.00,0.00,0.00,0,1,0,0.0
Status,0,106,47,5,33,1561097984,0.00,151.00,12.00,0,1,0,0.0
Status,0,106,48,5,34,1561097984,0.00,61.00,1.00,0,1,0,0.0
Status,0,106,49,5,38,1561097984,0.00,153.00,2.00,0,1,0,0.0
Status,0,106,50,5,59,1561097984,0.00,97.00,21.00,0,1,0,0.0
Status,0,106,51,6,1,1575420032,18.20,233.00,17.00,1,1,0,13.900001
Status,0,106,52,6,7,1575420032,20.60,112.00,53.00,1,1,0,16.3
Status,0,106,53,6,13,1575420032,13.10,149.00,6.00,0,1,0,8.8
Status,0,106,54,6,19,1575420032,16.50,326.00,18.00,0,1,0,12.2
Status,0,106,55,6,21,1575420032,15.20,268.00,58.00,1,1,0,10.9
Status,0,106,56,6,26,1575420032,15.40,199.00,6.00,1,1,0,11.099999
Status,0,106,57,6,27,1575420032,22.00,13.00,48.00,1,1,0,17.7
Status,0,106,58,6,8,1575420032,0.00,134.00,6.00,0,1,0,0.0
Status,0,106,59,6,30,1575420032,0.00,0.00,0.00,0,1,0,0.0
Status,0,106,60,1,1,1176450048,0.00,194.00,7.00,0,1,0,0.0
Status,0,106,61,1,3,1176450048,0.00,218.00,51.00,0,1,0,0.0
Status,0,106,62,1,4,1176450048,0.00,5.00,57.00,0,1,0,0.0
Status,0,106,63,1,8,1176450048,0.00,147.00,42.00,0,1,0,0.0
Status,0,106,64,1,9,1176450048,0.00,332.00,29.00,0,1,0,0.0
Status,0,106,65,1,26,1176450048,0.00,37.00,6.00,0,1,0,0.0
Status,0,106,66,1,27,1176450048,0.00,96.00,41.00,0,1,0,0.0
Status,0,106,67,4,194,1176450048,0.00,48.00,24.00,0,1,0,0.0
Status,0,106,68,4,195,1176450048,0.00,94.00,13.00,0,1,0,0.0
Status,0,106,69,4,196,1176450048,0.00,134.00,18.00,0,0,0,0.0
Status,0,106,70,6,1,1176450048,0.00,233.00,17.00,0,1,0,0.0
Status,0,106,71,6,7,1176450048,0.00,112.00,53.00,0,1,0,0.0
Status,0,106,72,6,8,1176450048,0.00,134.00,6.00,0,1,0,0.0
Status,0,106,73,6,13,1176450048,0.00,149.00,6.00,0,1,0,0.0
Status,0,106,74,6,19,1176450048,0.00,326.00,18.00,0,1,0,0.0
Status,0,106,75,6,21,1176450048,0.00,268.00,58.00,0,1,0,0.0
Status,0,106,76,6,26,1176450048,0.00,199.00,6.00,0,1,0,0.0
Status,0,106,77,6,27,1176450048,0.00,13.00,48.00,0,1,0,0.0
Status,0,106,78,6,30,1176450048,0.00,0.00,0.00,0,1,0,0.0
Status,0,106,79,5,20,1176450048,0.00,323.00,3.00,0,1,0,0.0
Status,0,106,80,5,23,1176450048,0.00,358.00,42.00,0,1,0,0.0
Status,0,106,81,5,25,1176450048,0.00,43.00,13.00,0,1,0,0.0
Status,0,106,82,5,27,1176450048,0.00,0.00,0.00,0,1,0,0.0
Status,0,106,83,5,28,1176450048,0.00,159.00,20.00,0,1,0,0.0
Status,0,106,84,5,32,1176450048,0.00,308.00,54.00,0,1,0,0.0
Status,0,106,85,5,33,1176450048,0.00,151.00,12.00,0,1,0,0.0
Status,0,106,86,5,34,1176450048,0.00,61.00,1.00,0,1,0,0.0
Status,0,106,87,5,37,1176450048,0.00,288.00,35.00,0,1,0,0.0
Status,0,106,88,5,38,1176450048,0.00,153.00,2.00,0,1,0,0.0
Status,0,106,89,5,39,1176450048,0.00,82.00,38.00,0,1,0,0.0
Status,0,106,90,5,40,1176450048,0.00,45.00,56.00,0,1,0,0.0
Status,0,106,91,5,41,1176450048,0.00,171.00,62.00,0,1,0,0.0
Status,0,106,92,5,43,1176450048,0.00,103.00,21.00,0,1,0,0.0
Status,0,106,93,7,2,1176450048,0.00,249.00,57.00,0,1,0,0.0
Status,0,106,94,7,3,1176450048,0.00,166.00,75.00,0,1,0,0.0
Status,0,106,95,7,4,1176450048,0.00,61.00,55.00,0,1,0,0.0
Status,0,106,96,5,23,1575420032,26.70,358.00,42.00,1,1,0,19.7
Status,0,106,97,5,28,1575420032,22.70,159.00,20.00,0,1,0,15.700001
Status,0,106,98,5,32,1575420032,24.00,308.00,54.00,1,1,0,17.0
Status,0,106,99,5,37,1575420032,32.40,288.00,35.00,1,1,0,25.400002
Status,0,106,100,5,39,1575420032,22.00,82.00,38.00,0,1,0,15.0
Status,0,106,101,5,40,1575420032,28.30,45.00,56.00,1,1,0,21.3
Status,0,106,102,5,41,1575420032,19.40,171.00,62.00,0,1,0,12.4
Status,0,106,103,5,43,1575420032,21.70,103.00,21.00,1,1,0,14.700001
Status,0,106,104,5,25,1575420032,0.00,43.00,13.00,0,1,0,0.0
Status,0,106,105,5,33,1575420032,0.00,151.00,12.00,0,1,0,0.0
UncalMag,1650242392137,365688367656283,11.6998,60.207,-34.6968,37.153934,43.69474,-8.146272
UncalAccel,1650242392144,365688374900658,-2.64679,5.431845,7.5842323,0.0,0.0,0.0
UncalGyro,1650242392144,365688374900658,-0.012117374,-0.008522109,0.0043942127,0.003772056,-0.0010888841,0.0035041608
UncalMag,1650242392147,365688377656283,11.7486,60.2558,-34.6968,37.153934,43.69474,-8.146272
OrientationDeg,1650242392134,365688364849825,348,19,-33
OrientationDeg,1650242392145,365688374900658,348,19,-33
UncalAccel,1650242392154,365688384951492,-2.694674,5.383961,7.6369047,0.0,0.0,0.0
UncalGyro,1650242392154,365688384951492,-0.037683703,-0.035153702,-0.0051931604,0.003772056,-0.0010888841,0.0035041608
UncalMag,1650242392158,365688387656283,11.7852,60.280197,-34.709,37.153934,43.69474,-8.146272
OrientationDeg,1650242392154,365688384951492,348,19,-33
UncalAccel,1650242392165,365688395002325,-2.718616,5.3743844,7.699154,0.0,0.0,0.0
UncalGyro,1650242392165,365688395002325,-0.047271073,-0.049002126,-0.008388951,0.003772056,-0.0010888841,0.0035041608
UncalMag,1650242392167,365688397656283,11.8218,60.2192,-34.6602,37.153934,43.69474,-8.146272
OrientationDeg,1650242392165,365688395002325,348,19,-33
Raw,1650242392415,283854068000000,18,,-1333993756347467500,-0.3886222839355469,44.84648161451332,2.959080229041856,18.041484362469067,56,3,0.0,16399,88810344022050,92,19.1,355.934814453125,1.9525001049041748,16,0.0,0.0,1.57542003E9,,,,0,,1,2.24,15.500000000000002,0.0,0.0,,,C,365687754487361
Raw,1650242392415,283854068000000,18,,-1333993756347467500,-0.3886222839355469,44.84648161451332,2.959080229041856,18.041484362469067,56,4,0.0,16399,88810345405825,122,17.2,-330.9302062988281,3.6740002632141113,16,0.0,0.0,1.57542003E9,,,,0,,1,2.24,13.6,0.0,0.0,,,C,365687754487361
Raw,1650242392415,283854068000000,18,,-1333993756347467500,-0.3886222839355469,44.84648161451332,2.959080229041856,18.041484362469067,56,7,0.0,16399,88810333994443,27,27.7,-153.2910614013672,0.6739999651908875,16,0.0,0.0,1.57542003E9,,,,0,,1,2.24,24.099999999999998,0.0,0.0,,,C,365687754487361
Raw,1650242392415,283854068000000,18,,-1333993756347467500,-0.3886222839355469,44.84648161451332,2.959080229041856,18.041484362469067,56,8,0.0,16399,88810343306344,35,26.4,-423.24169921875,0.7489999532699585,16,0.0,0.0,1.57542003E9,,,,0,,1,2.24,22.799999999999997,0.0,0.0,,,C,365687754487361
Raw,1650242392415,283854068000000,18,,-1333993756347467500,-0.3886222839355469,44.84648161451332,2.959080229041856,18.041484362469067,56,27,0.0,16399,88810343336463,40,25.0,-94.94702911376953,0.8089999556541443,16,0.0,0.0,1.57542003E9,,,,0,,1,2.24,21.4,0.0,0.0,,,C,365687754487361
Raw,1650242392415,283854068000000,18,,-1333993756347467500,-0.3886222839355469,44.84648161451332,2.959080229041856,18.041484362469067,56,6,0.0,49359,13192351634193,139,16.2,16.228801727294922,9.053000450134277,16,0.0,0.0,1.59975002E9,,,,0,,3,0.7,12.2,3832.37158203125,16.448427200317383,,,C,365687754487361
Raw,1650242392415,283854068000000,18,,-1333993756347467500,-0.3886222839355469,44.84648161451332,2.959080229041856,18.041484362469067,56,5,0.0,49359,13192341346854,80,20.7,710.4382934570312,1.8580000400543213,16,0.0,0.0,1.60256256E9,,,,0,,3,0.7,16.7,3832.37158203125,16.448427200317383,,,C,365687754487361
Raw,1650242392415,283854068000000,18,,-1333993756347467500,-0.3886222839355469,44.84648161451332,2.959080229041856,18.041484362469067,56,60,0.0,16399,88796295254790,31,27.4,-10.350929260253906,5.742599964141846,16,0.0,0.0,1.56109798E9,,,,0,,5,1.93,23.099999999999998,-1562.0831298828125,11.75462818145752,,,I,365687754487361
Raw,1650242392415,283854068000000,18,,-1333993756347467500,-0.3886222839355469,44.84648161451332,2.959080229041856,18.041484362469067,56,40,0.0,16399,88796293066405,53,24.0,63.17139434814453,0.8539999723434448,16,0.0,0.0,1.56109798E9,,,,0,,5,1.93,19.7,-1562.0831298828125,11.75462818145752,,,I,365687754487361
Raw,1650242392415,283854068000000,18,,-1333993756347467500,-0.3886222839355469,44.84648161451332,2.959080229041856,18.041484362469067,56,39,0.0,16399,88796289369304,92,19.3,-117.48975372314453,2.7100000381469727,16,0.0,0.0,1.56109798E9,,,,0,,5,1.93,15.0,-1562.0831298828125,11.75462818145752,,,I,365687754487361
Raw,1650242392415,283854068000000,18,,-1333993756347467500,-0.3886222839355469,44.84648161451332,2.959080229041856,18.041484362469067,56,37,0.0,16399,88796335413482,35,27.2,-45.110076904296875,0.6710000038146973,16,0.0,0.0,1.56109798E9,,,,0,,5,1.93,22.9,-1562.0831298828125,11.75462818145752,,,I,365687754487361
Raw,1650242392415,283854068000000,18,,-1333993756347467500,-0.3886222839355469,44.84648161451332,2.959080229041856,18.041484362469067,56,32,0.0,16399,88796339515610,61,23.0,-261.2025146484375,0.9149999618530273,16,0.0,0.0,1.56109798E9,,,,0,,5,1.93,18.7,-1562.0831298828125,11.75462818145752,,,I,365687754487361
Raw,1650242392415,283854068000000,18,,-1333993756347467500,-0.3886222839355469,44.84648161451332,2.959080229041856,18.041484362469067,56,7,0.0,16399,88796294228113,80,20.9,42.57515335083008,1.877500057220459,16,0.0,0.0,1.56109798E9,,,,0,,5,1.93,16.599999999999998,-1562.0831298828125,11.75462818145752,,,I,365687754487361
Raw,1650242392415,283854068000000,18,,-1333993756347467500,-0.3886222839355469,44.84648161451332,2.959080229041856,18.041484362469067,56,7,0.0,23567,88810333995772,80,20.6,162.1777801513672,1.1769999265670776,16,0.0,0.0,1.57542003E9,,,,0,,6,2.28,16.3,-1474.7276611328125,14.697386741638184,,,C,365687754487361
Raw,1650242392415,283854068000000,18,,-1333993756347467500,-0.3886222839355469,44.84648161451332,2.959080229041856,18.041484362469067,56,19,0.0,23567,88810322410797,139,16.5,-484.2878723144531,3.888500213623047,16,0.0,0.0,1.57542003E9,,,,0,,6,2.28,12.2,-1474.7276611328125,14.697386741638184,,,C,365687754487361
Raw,1650242392415,283854068000000,18,,-1333993756347467500,-0.3886222839355469,44.84648161451332,2.959080229041856,18.041484362469067,56,26,0.0,23567,88810320285829,159,15.4,23.14922523498535,4.765500068664551,16,0.0,0.0,1.57542003E9,,,,0,,6,2.28,11.100000000000001,-1474.7276611328125,14.697386741638184,,,C,365687754487361
Raw,1650242392415,283854068000000,18,,-1333993756347467500,-0.3886222839355469,44.84648161451332,2.959080229041856,18.041484362469067,56,27,0.0,23567,88810333354376,70,22.0,366.6768798828125,1.037000060081482,16,0.0,0.0,1.57542003E9,,,,0,,6,2.28,17.7,-1474.7276611328125,14.697386741638184,,,C,365687754487361
Raw,1650242392415,283854068000000,18,,-1333993756347467500,-0.3886222839355469,44.84648161451332,2.959080229041856,18.041484362469067,56,23,0.0,16399,88796337188689,11,26.7,238.56298828125,0.15658068656921387,16,0.0,0.0,1.57542003E9,,,,0,,5,2.28,19.7,-1449.21142578125,95.60094451904297,,,P,365687754487361
Raw,1650242392415,283854068000000,18,,-1333993756347467500,-0.3886222839355469,44.84648161451332,2.959080229041856,18.041484362469067,56,32,0.0,16399,88796339515506,14,24.0,-260.5976867675781,1.119999885559082,16,0.0,0.0,1.57542003E9,,,,0,,5,2.28,17.0,-1449.21142578125,95.60094451904297,,,P,365687754487361
Raw,1650242392415,283854068000000,18,,-1333993756347467500,-0.3886222839355469,44.84648161451332,2.959080229041856,18.041484362469067,56,37,0.0,16399,88796335413336,6,32.4,-45.5509033203125,0.11239182204008102,16,0.0,0.0,1.57542003E9,,,,0,,5,2.28,25.4,-1449.21142578125,95.60094451904297,,,P,365687754487361
Raw,1650242392415,283854068000000,18,,-1333993756347467500,-0.3886222839355469,44.84648161451332,2.959080229041856,18.041484362469067,56,40,0.0,16399,88796293066237,9,28.3,63.67841720581055,0.10256027430295944,16,0.0,0.0,1.57542003E9,,,,0,,5,2.28,21.3,-1449.21142578125,95.60094451904297,,,P,365687754487361
Raw,1650242392415,283854068000000,18,,-1333993756347467500,-0.3886222839355469,44.84648161451332,2.959080229041856,18.041484362469067,56,43,0.0,16399,88796331457811,20,21.7,-173.30044555664062,2.0980000495910645,16,0.0,0.0,1.57542003E9,,,,0,,5,2.28,14.7,-1449.21142578125,95.60094451904297,,,P,365687754487361
UncalAccel,1650242392175,365688405053158,-2.6850972,5.383961,7.7374616,0.0,0.0,0.0
UncalGyro,1650242392175,365688405053158,-0.044075284,-0.042610545,-0.0030626329,0.003772056,-0.0010888841,0.0035041608
UncalMag,1650242392177,365688407656283,11.858399,60.2192,-34.648,37.153934,43.69474,-8.146272
UncalAccel,1650242392185,365688415103992,-2.670732,5.360019,7.780557,0.0,0.0,0.0
UncalGyro,1650242392185,365688415103992,-0.027031064,-0.018109482,0.003328949,0.003772056,-0.0010888841,0.0035041608
UncalMag,1650242392187,365688417656283,11.9316,60.194798,-34.6114,37.153934,43.69474,-8.146272
UncalAccel,1650242392195,365688425154825,-2.6994624,5.355231,7.814076,0.0,0.0,0.0
UncalGyro,1650242392195,365688425154825,-0.005725792,0.0074568456,0.00972053,0.003772056,-0.0010888841,0.0035041608
UncalMag,1650242392197,365688427656283,11.9925995,60.2192,-34.5016,37.153934,43.69474,-8.146272
OrientationDeg,1650242392175,365688405053158,348,19,-33
OrientationDeg,1650242392185,365688415103992,348,19,-33
OrientationDeg,1650242392196,365688425154825,348,19,-33
UncalAccel,1650242392206,365688435205658,-2.7234044,5.360019,7.814076,0.0,0.0,0.0
UncalGyro,1650242392206,365688435205658,0.015579481,0.017044218,0.010785795,0.003772056,-0.0010888841,0.0035041608
UncalMag,1650242392208,365688437656283,12.0048,60.194798,-34.3918,37.153934,43.69474,-8.146272
OrientationDeg,1650242392205,365688435205658,348,19,-33
UncalAccel,1650242392215,365688445256492,-2.7281928,5.369596,7.790134,0.0,0.0,0.0
UncalGyro,1650242392215,365688445256492,0.025166854,0.008522109,0.0075900033,0.003772056,-0.0010888841,0.0035041608
UncalMag,1650242392218,365688447656283,12.017,60.207,-34.3674,37.153934,43.69474,-8.146272
OrientationDeg,1650242392216,365688445256492,348,19,-33
UncalAccel,1650242392225,365688455307325,-2.7234044,5.3887496,7.7614036,0.0,0.0,0.0
UncalGyro,1650242392225,365688455307325,0.02410159,-0.0,0.00652474,0.003772056,-0.0010888841,0.0035041608
UncalMag,1650242392227,365688457656283,12.0658,60.2192,-34.355198,37.153934,43.69474,-8.146272
OrientationDeg,1650242392225,365688455307325,348,19,-33
UncalAccel,1650242392235,365688465358158,-2.7042508,5.4222684,7.74225,0.0,0.0,0.0
UncalGyro,1650242392235,365688465358158,0.019840535,0.0021305273,0.0075900033,0.003772056,-0.0010888841,0.0035041608
UncalMag,1650242392237,365688467656283,12.078,60.194798,-34.343,37.153934,43.69474,-8.146272
OrientationDeg,1650242392236,365688465358158,348,19,-33
UncalAccel,1650242392245,365688475408992,-2.7281928,5.4366336,7.7230964,0.0,0.0,0.0
UncalGyro,1650242392246,365688475408992,0.015579481,0.005326318,0.008655267,0.003772056,-0.0010888841,0.0035041608
UncalMag,1650242392248,365688477656283,12.1146,60.194798,-34.3918,37.153934,43.69474,-8.146272
OrientationDeg,1650242392245,365688475408992,348,19,-33
UncalGyro,1650242392255,365688485459825,0.010253162,-0.0010652636,0.008655267,0.003772056,-0.0010888841,0.0035041608
UncalAccel,1650242392255,365688485459825,-2.7569232,5.450999,7.727885,0.0,0.0,0.0
UncalMag,1650242392258,365688487656283,12.1634,60.194798,-34.404,37.153934,43.69474,-8.146272
OrientationDeg,1650242392255,365688485459825,348,19,-33
UncalAccel,1650242392265,365688495510658,-2.7617116,5.4462104,7.732673,0.0,0.0,0.0
UncalGyro,1650242392265,365688495510658,0.002796317,-0.0117179,0.00972053,0.003772056,-0.0010888841,0.0035041608
UncalMag,1650242392267,365688497656283,12.1024,60.1704,-34.5016,37.153934,43.69474,-8.146272
OrientationDeg,1650242392265,365688495510658,348,19,-33
UncalAccel,1650242392275,365688505561492,-2.7712884,5.455787,7.7230964,0.0,0.0,0.0
UncalGyro,1650242392275,365688505561492,-0.0035952649,-0.018109482,0.011851058,0.003772056,-0.0010888841,0.0035041608
UncalMag,1650242392277,365688507656283,12.053599,60.1338,-34.6236,37.153934,43.69474,-8.146272
OrientationDeg,1650242392276,365688505561492,348,19,-33
UncalAccel,1650242392285,365688515612325,-2.7617116,5.455787,7.74225,0.0,0.0,0.0
UncalGyro,1650242392285,365688515612325,-0.012117374,-0.019174745,0.01824264,0.003772056,-0.0010888841,0.0035041608
UncalMag,1650242392288,365688517656283,12.078,60.146,-34.6846,37.153934,43.69474,-8.146272
OrientationDeg,1650242392286,365688515612325,348,19,-33
UncalAccel,1650242392296,365688525663158,-2.7329812,5.431845,7.7709804,0.0,0.0,0.0
UncalGyro,1650242392296,365688525663158,-0.016378429,-0.0234358,0.019307904,0.003772056,-0.0010888841,0.0035041608
UncalMag,1650242392298,365688527656283,12.1268,60.194798,-34.7822,37.153934,43.69474,-8.146272
OrientationDeg,1650242392295,365688525663158,348,19,-33
UncalAccel,1650242392306,365688535713992,-2.7042508,5.403115,7.804499,0.0,0.0,0.0
UncalGyro,1650242392306,365688535713992,-0.017443692,-0.035153702,0.012916322,0.003772056,-0.0010888841,0.0035041608
UncalMag,1650242392307,365688537656283,12.053599,60.1826,-34.818798,37.153934,43.69474,-8.146272
OrientationDeg,1650242392305,365688535713992,348,19,-33
UncalAccel,1650242392315,365688545764825,-2.6898856,5.383961,7.8236527,0.0,0.0,0.0
UncalGyro,1650242392316,365688545764825,-0.013182637,-0.0468716,0.0054594763,0.003772056,-0.0010888841,0.0035041608
UncalMag,1650242392318,365688547656283,12.0658,60.2314,-34.818798,37.153934,43.69474,-8.146272
OrientationDeg,1650242392316,365688545764825,348,19,-33
UncalAccel,1650242392325,365688555815658,-2.6898856,5.3743844,7.838018,0.0,0.0,0.0
UncalGyro,1650242392325,365688555815658,-0.002530001,-0.04367581,0.0022636852,0.003772056,-0.0010888841,0.0035041608
UncalMag,1650242392328,365688557656283,12.017,60.2558,-34.7944,37.153934,43.69474,-8.146272
OrientationDeg,1650242392325,365688555815658,348,19,-33
UncalAccel,1650242392335,365688565866492,-2.718616,5.379173,7.8332295,0.0,0.0,0.0
UncalGyro,1650242392335,365688565866492,0.013448954,-0.022370536,0.008655267,0.003772056,-0.0010888841,0.0035041608
UncalMag,1650242392337,365688567656283,12.0292,60.2924,-34.830997,37.153934,43.69474,-8.146272
OrientationDeg,1650242392335,365688565866492,348,19,-33
UncalAccel,1650242392345,365688575917325,-2.7234044,5.3887496,7.7853456,0.0,0.0,0.0
UncalGyro,1650242392345,365688575917325,0.037950017,-0.006391582,0.015046849,0.003772056,-0.0010888841,0.0035041608
UncalMag,1650242392347,365688577656283,12.0658,60.3046,-34.7944,37.153934,43.69474,-8.146272
OrientationDeg,1650242392346,365688575917325,348,19,-33
UncalGyro,1650242392356,365688585968158,0.058190025,0.006391582,0.019307904,0.003772056,-0.0010888841,0.0035041608
UncalAccel,1650242392355,365688585968158,-2.7042508,5.407903,7.7087307,0.0,0.0,0.0
UncalMag,1650242392357,365688587656283,12.1146,60.3046,-34.818798,37.153934,43.69474,-8.146272
OrientationDeg,1650242392355,365688585968158,348,19,-33
UncalGyro,1650242392366,365688596018992,0.06671213,0.013848428,0.01824264,0.003772056,-0.0010888841,0.0035041608
UncalAccel,1650242392366,365688596018992,-2.6850972,5.4366336,7.5842323,0.0,0.0,0.0
UncalMag,1650242392368,365688597656283,12.0658,60.329,-34.8066,37.153934,43.69474,-8.146272
OrientationDeg,1650242392366,365688596018992,348,19,-33
UncalAccel,1650242392376,365688606069825,-2.6611552,5.474941,7.4932528,0.0,0.0,0.0
UncalGyro,1650242392376,365688606069825,0.05392897,0.015978955,0.01824264,0.003772056,-0.0010888841,0.0035041608
UncalMag,1650242392377,365688607656283,12.0292,60.329,-34.8066,37.153934,43.69474,-8.146272
OrientationDeg,1650242392376,365688606069825,348,19,-33
UncalGyro,1650242392387,365688616120658,0.026232118,0.019174745,0.019307904,0.003772056,-0.0010888841,0.0035041608
UncalAccel,1650242392386,365688616120658,-2.6659436,5.5180364,7.4693108,0.0,0.0,0.0
UncalMag,1650242392388,365688617656283,12.0414,60.280197,-34.7944,37.153934,43.69474,-8.146272
OrientationDeg,1650242392386,365688616120658,348,19,-33
UncalAccel,1650242392396,365688626171492,-2.694674,5.5084596,7.483676,0.0,0.0,0.0
UncalGyro,1650242392396,365688626171492,-0.0046605286,0.006391582,0.016112113,0.003772056,-0.0010888841,0.0035041608
UncalMag,1650242392397,365688627656283,12.017,60.2192,-34.7578,37.153934,43.69474,-8.146272
OrientationDeg,1650242392397,365688626171492,348,19,-33
UncalAccel,1650242392406,365688636222325,-2.7234044,5.489306,7.545925,0.0,0.0,0.0
UncalGyro,1650242392406,365688636222325,-0.033422645,-0.018109482,0.010785795,0.003772056,-0.0010888841,0.0035041608
UncalMag,1650242392408,365688637656283,12.053599,60.1826,-34.745598,37.153934,43.69474,-8.146272
OrientationDeg,1650242392406,365688636222325,348,19,-33
UncalGyro,1650242392417,365688646273158,-0.05472792,-0.029827382,0.008655267,0.003772056,-0.0010888841,0.0035041608
UncalAccel,1650242392417,365688646273158,-2.7665,5.441422,7.641693,0.0,0.0,0.0
OrientationDeg,1650242392416,365688646273158,348,19,-33
UncalMag,1650242392417,365688647656283,12.0292,60.146,-34.7212,37.153934,43.69474,-8.146272
UncalAccel,1650242392427,365688656323992,-2.8000188,5.407903,7.766192,0.0,0.0,0.0
UncalGyro,1650242392426,365688656323992,-0.06431529,-0.041545283,0.011851058,0.003772056,-0.0010888841,0.0035041608
UncalMag,1650242392428,365688657656283,12.0658,60.1704,-34.745598,37.153934,43.69474,-8.146272
OrientationDeg,1650242392427,365688656323992,348,19,-33
UncalAccel,1650242392436,365688666374825,-2.8000188,5.3743844,7.8332295,0.0,0.0,0.0
UncalGyro,1650242392436,365688666374825,-0.056858446,-0.0585895,0.015046849,0.003772056,-0.0010888841,0.0035041608
UncalMag,1650242392437,365688667656283,12.017,60.146,-34.6602,37.153934,43.69474,-8.146272
OrientationDeg,1650242392436,365688666374825,348,19,-33
UncalAccel,1650242392446,365688676425658,-2.7234044,5.3408656,7.885902,0.0,0.0,0.0
UncalGyro,1650242392446,365688676425658,-0.036618438,-0.060720026,0.021438431,0.003772056,-0.0010888841,0.0035041608
UncalMag,1650242392448,365688677656283,12.017,60.1704,-34.6236,37.153934,43.69474,-8.146272
OrientationDeg,1650242392446,365688676425658,348,18,-33
UncalAccel,1650242392456,365688686476492,-2.6659436,5.312135,7.876325,0.0,0.0,0.0
UncalGyro,1650242392457,365688686476492,-0.00785632,-0.041545283,0.025699485,0.003772056,-0.0010888841,0.0035041608
UncalMag,1650242392458,365688687656283,12.090199,60.1704,-34.5748,37.153934,43.69474,-8.146272
OrientationDeg,1650242392456,365688686476492,348,18,-33
UncalMag,1650242392467,365688697656283,12.1268,60.2192,-34.4894,37.153934,43.69474,-8.146272
UncalAccel,1650242392466,365688696527325,-2.6036944,5.345654,7.8571715,0.0,0.0,0.0
OrientationDeg,1650242392466,365688696527325,348,18,-33
UncalGyro,1650242392466,365688696527325,0.023036325,-0.022370536,0.027830012,0.003772056,-0.0010888841,0.0035041608
UncalAccel,1650242392477,365688706578158,-2.5558102,5.3408656,7.766192,0.0,0.0,0.0
UncalGyro,1650242392476,365688706578158,0.050733183,0.0074568456,0.02996054,0.003772056,-0.0010888841,0.0035041608
UncalMag,1650242392477,365688707656283,12.078,60.2558,-34.5382,37.153934,43.69474,-8.146272
OrientationDeg,1650242392476,365688706578158,348,18,-33
UncalAccel,1650242392487,365688716628992,-2.5510218,5.355231,7.675212,0.0,0.0,0.0
UncalMag,1650242392488,365688717656283,12.0292,60.267998,-34.5626,37.153934,43.69474,-8.146272
UncalGyro,1650242392486,365688716628992,0.06458161,0.03728423,0.032091066,0.003772056,-0.0010888841,0.0035041608
OrientationDeg,1650242392486,365688716628992,348,18,-33
UncalAccel,1650242392497,365688726679825,-2.5558102,5.407903,7.5602903,0.0,0.0,0.0
UncalGyro,1650242392496,365688726679825,0.06351634,0.054328445,0.02996054,0.003772056,-0.0010888841,0.0035041608
UncalMag,1650242392497,365688727656283,11.9925995,60.2924,-34.5382,37.153934,43.69474,-8.146272
OrientationDeg,1650242392496,365688726679825,348,18,-33
UncalMag,1650242392507,365688737656283,11.9194,60.267998,-34.526,37.153934,43.69474,-8.146272
UncalAccel,1650242392507,365688736730658,-2.5701754,5.4366336,7.498041,0.0,0.0,0.0
UncalGyro,1650242392507,365688736730658,0.04860265,0.05006739,0.022503695,0.003772056,-0.0010888841,0.0035041608
OrientationDeg,1650242392506,365688736730658,348,18,-33
OrientationDeg,1650242392516,365688746781492,348,18,-33
UncalAccel,1650242392516,365688746781492,-2.6084828,5.450999,7.435792,0.0,0.0,0.0
UncalMag,1650242392518,365688747656283,11.8949995,60.3046,-34.513798,37.153934,43.69474,-8.146272
UncalGyro,1650242392517,365688746781492,0.016644744,0.03302317,0.010785795,0.003772056,-0.0010888841,0.0035041608
OrientationDeg,1650242392526,365688756832325,348,18,-33
UncalAccel,1650242392526,365688756832325,-2.6420016,5.474941,7.4549456,0.0,0.0,0.0
UncalMag,1650242392528,365688757656283,11.9194,60.267998,-34.5504,37.153934,43.69474,-8.146272
UncalGyro,1650242392527,365688756832325,-0.02277001,0.0042610546,1.3315796E-4,0.003772056,-0.0010888841,0.0035041608
UncalAccel,1650242392537,365688766883158,-2.7042508,5.474941,7.5363483,0.0,0.0,0.0
UncalMag,1650242392537,365688767656283,11.834,60.267998,-34.586998,37.153934,43.69474,-8.146272
UncalGyro,1650242392536,365688766883158,-0.055793185,-0.03195791,-0.0073236874,0.003772056,-0.0010888841,0.0035041608
OrientationDeg,1650242392536,365688766883158,348,18,-33
UncalAccel,1650242392547,365688776933992,-2.718616,5.441422,7.6608467,0.0,0.0,0.0
UncalMag,1650242392547,365688777656283,11.760799,60.3046,-34.6602,37.153934,43.69474,-8.146272
UncalGyro,1650242392546,365688776933992,-0.07603319,-0.049002126,-0.0051931604,0.003772056,-0.0010888841,0.0035041608
OrientationDeg,1650242392546,365688776933992,348,18,-33
UncalAccel,1650242392556,365688786984825,-2.7138276,5.4126916,7.804499,0.0,0.0,0.0
UncalMag,1650242392557,365688787656283,11.8096,60.3168,-34.648,37.153934,43.69474,-8.146272
UncalGyro,1650242392556,365688786984825,-0.07922898,-0.039414756,0.0043942127,0.003772056,-0.0010888841,0.0035041608
OrientationDeg,1650242392556,365688786984825,348,18,-33
UncalAccel,1650242392567,365688797036179,-2.7090392,5.383961,7.9289975,0.0,0.0,0.0
UncalMag,1650242392567,365688797656283,11.7973995,60.353397,-34.6602,37.153934,43.69474,-8.146272
UncalGyro,1650242392567,365688797036179,-0.0611195,-0.017044218,0.012916322,0.003772056,-0.0010888841,0.0035041608
OrientationDeg,1650242392568,365688797036179,348,18,-33
UncalAccel,1650242392577,365688807087273,-2.7234044,5.360019,7.996035,0.0,0.0,0.0
UncalMag,1650242392577,365688807656283,11.8096,60.3778,-34.6602,37.153934,43.69474,-8.146272
UncalGyro,1650242392577,365688807087273,-0.0259658,0.003195791,0.023568958,0.003772056,-0.0010888841,0.0035041608
OrientationDeg,1650242392578,365688807087273,348,18,-33
UncalAccel,1650242392588,365688817138106,-2.694674,5.3504424,7.9912467,0.0,0.0,0.0
UncalMag,1650242392588,365688817656283,11.8096,60.4144,-34.586998,37.153934,43.69474,-8.146272
UncalGyro,1650242392588,365688817138106,0.009187899,0.0234358,0.031025803,0.003772056,-0.0010888841,0.0035041608
OrientationDeg,1650242392587,365688817138106,348,18,-33
UncalAccel,1650242392597,365688827188940,-2.6803088,5.345654,7.909844,0.0,0.0,0.0
UncalMag,1650242392597,365688827656283,11.8218,60.39,-34.6114,37.153934,43.69474,-8.146272
UncalGyro,1650242392597,365688827188940,0.036884755,0.034088437,0.03315633,0.003772056,-0.0010888841,0.0035041608
OrientationDeg,1650242392598,365688827188940,348,18,-33
UncalAccel,1650242392607,365688837239773,-2.64679,5.3743844,7.7757688,0.0,0.0,0.0
UncalMag,1650242392607,365688837656283,11.773,60.4022,-34.586998,37.153934,43.69474,-8.146272
UncalGyro,1650242392607,365688837239773,0.04860265,0.03195791,0.02996054,0.003772056,-0.0010888841,0.0035041608
OrientationDeg,1650242392607,365688837239773,348,18,-33
OrientationDeg,1650242392617,365688847290606,348,18,-33
UncalAccel,1650242392617,365688847290606,-2.6276364,5.3983264,7.6704235,0.0,0.0,0.0
UncalGyro,1650242392617,365688847290606,0.04114581,0.020240009,0.021438431,0.003772056,-0.0010888841,0.0035041608
UncalMag,1650242392617,365688847656283,11.7852,60.4144,-34.5626,37.153934,43.69474,-8.146272
UncalMag,1650242392628,365688857656283,11.8462,60.3778,-34.5382,37.153934,43.69474,-8.146272
UncalAccel,1650242392628,365688857341440,-2.622848,5.427057,7.5985975,0.0,0.0,0.0
UncalGyro,1650242392627,365688857341440,0.018775271,0.0010652636,0.012916322,0.003772056,-0.0010888841,0.0035041608
OrientationDeg,1650242392627,365688857341440,348,18,-33
UncalMag,1650242392637,365688867656283,11.8462,60.39,-34.5626,37.153934,43.69474,-8.146272
UncalAccel,1650242392637,365688867392273,-2.6563668,5.4462104,7.603386,0.0,0.0,0.0
UncalGyro,1650242392638,365688867392273,-0.00785632,-0.024501063,0.0075900033,0.003772056,-0.0010888841,0.0035041608
