# 
# Header Description:
# 
# Version: v3.0.3.1 Platform: 12 Manufacturer: OnePlus Model: LE2115
# 
# Raw,utcTimeMillis,TimeNanos,LeapSecond,TimeUncertaintyNanos,FullBiasNanos,BiasNanos,BiasUncertaintyNanos,DriftNanosPerSecond,DriftUncertaintyNanosPerSecond,HardwareClockDiscontinuityCount,Svid,TimeOffsetNanos,State,ReceivedSvTimeNanos,ReceivedSvTimeUncertaintyNanos,Cn0DbHz,PseudorangeRateMetersPerSecond,PseudorangeRateUncertaintyMetersPerSecond,AccumulatedDeltaRangeState,AccumulatedDeltaRangeMeters,AccumulatedDeltaRangeUncertaintyMeters,CarrierFrequencyHz,CarrierCycles,CarrierPhase,CarrierPhaseUncertainty,MultipathIndicator,SnrInDb,ConstellationType,AgcDb,BasebandCn0DbHz,FullInterSignalBiasNanos,FullInterSignalBiasUncertaintyNanos,SatelliteInterSignalBiasNanos,SatelliteInterSignalBiasUncertaintyNanos,CodeType,ChipsetElapsedRealtimeNanos
# 
# UncalAccel,utcTimeMillis,elapsedRealtimeNanos,UncalAccelXMps2,UncalAccelYMps2,UncalAccelZMps2,BiasXMps2,BiasYMps2,BiasZMps2
# 
# UncalGyro,utcTimeMillis,elapsedRealtimeNanos,UncalGyroXRadPerSec,UncalGyroYRadPerSec,UncalGyroZRadPerSec,DriftXRadPerSec,DriftYRadPerSec,DriftZRadPerSec
# 
# UncalMag,utcTimeMillis,elapsedRealtimeNanos,UncalMagXMicroT,UncalMagYMicroT,UncalMagZMicroT,BiasXMicroT,BiasYMicroT,BiasZMicroT
# 
# OrientationDeg,utcTimeMillis,elapsedRealtimeNanos,yawDeg,rollDeg,pitchDeg
# 
# Fix,Provider,LatitudeDegrees,LongitudeDegrees,AltitudeMeters,SpeedMps,AccuracyMeters,BearingDegrees,UnixTimeMillis,SpeedAccuracyMps,BearingAccuracyDegrees,elapsedRealtimeNanos
# 
# Nav,Svid,Type,Status,MessageId,Sub-messageId,Data(Bytes)
# 
# Status,UnixTimeMillis,SignalCount,SignalIndex,ConstellationType,Svid,CarrierFrequencyHz,Cn0DbHz,AzimuthDegrees,ElevationDegrees,UsedInFix,HasAlmanacData,HasEphemerisData,BasebandCn0DbHz
# 
Status,0,35,0,1,2,1575420032,28.10,120.00,23.00,1,1,1,24.5
Status,0,35,1,1,5,1575420032,35.50,49.00,47.00,1,1,1,31.9
Status,0,35,2,1,13,1575420032,41.80,82.00,61.00,1,1,1,38.2
Status,0,35,3,1,15,1575420032,33.10,182.00,69.00,1,1,1,29.499998
Status,0,35,4,1,18,1575420032,27.20,314.00,42.00,1,1,1,23.6
Status,0,35,5,1,20,1575420032,31.30,68.00,25.00,1,1,1,27.699999
Status,0,35,6,1,23,1575420032,25.30,267.00,23.00,1,1,1,21.699999
Status,0,35,7,1,24,1575420032,20.80,166.00,3.00,0,1,1,17.199999
Status,0,35,8,1,29,1575420032,20.50,226.00,57.00,1,1,1,16.9
Status,0,35,9,1,30,1575420032,22.90,48.00,6.00,0,1,1,19.3
Status,0,35,10,2,138,1575420032,32.60,0.00,0.00,0,0,0,28.999998
Status,0,35,11,3,6,1599750016,21.50,29.00,42.00,0,1,0,17.5
Status,0,35,12,3,22,1600312448,18.30,337.00,69.00,1,1,0,14.299999
Status,0,35,13,3,23,1603687552,14.20,327.00,7.00,0,1,0,10.2
Status,0,35,14,3,21,1604249984,34.30,141.00,56.00,1,1,1,30.3
Status,0,35,15,3,7,1604812544,34.30,277.00,73.00,1,1,1,30.3
Status,0,35,16,3,8,1605374976,22.40,231.00,27.00,1,1,1,18.4
Status,0,35,17,6,4,1575420032,39.50,70.00,70.00,1,1,1,35.2
Status,0,35,18,6,9,1575420032,32.50,206.00,47.00,1,1,1,28.2
Status,0,35,19,6,11,1575420032,30.40,45.00,81.00,1,1,0,26.099998
Status,0,35,20,6,12,1575420032,30.10,123.00,31.00,1,1,1,25.8
Status,0,35,21,6,19,1575420032,17.70,42.00,15.00,0,1,0,13.400001
Status,0,35,22,6,36,1575420032,33.90,316.00,36.00,1,1,0,29.600002
Status,0,35,23,6,5,1575420032,0.00,0.00,0.00,0,1,0,0.0
Status,0,35,24,1,18,1176450048,18.80,314.00,42.00,0,1,1,13.9
Status,0,35,25,1,23,1176450048,0.00,267.00,23.00,0,1,1,0.0
Status,0,35,26,1,24,1176450048,0.00,166.00,3.00,0,1,1,0.0
Status,0,35,27,1,30,1176450048,0.00,48.00,6.00,0,1,1,0.0
Status,0,35,28,6,4,1176450048,18.60,70.00,70.00,0,1,1,13.3
Status,0,35,29,6,11,1176450048,11.60,45.00,81.00,0,1,0,6.3
Status,0,35,30,6,12,1176450048,18.50,123.00,31.00,0,1,1,13.2
Status,0,35,31,6,5,1176450048,0.00,0.00,0.00,0,1,0,0.0
Status,0,35,32,6,9,1176450048,0.00,206.00,47.00,0,1,1,0.0
Status,0,35,33,6,19,1176450048,0.00,42.00,15.00,0,1,0,0.0
Status,0,35,34,6,36,1176450048,0.00,316.00,36.00,0,1,0,0.0
Raw,1646543890413,636005573000000,18,,-1329943102840388004,-0.9884319305419922,25.82710840215441,-9.39836519779946,8.865844143443438,7,2,0.0,16399,19108334548071,27,28.1,467.1329040527344,0.6225000023841858,16,0.0,0.0,1.57542003E9,,,,0,,1,5.94,24.5,0.0,0.0,,,C,975619409564077
Raw,1646543890413,636005573000000,18,,-1329943102840388004,-0.9884319305419922,25.82710840215441,-9.39836519779946,8.865844143443438,7,5,0.0,16399,19108341872055,13,35.5,369.22369384765625,0.05039195343852043,16,0.0,0.0,1.57542003E9,,,,0,,1,5.94,31.9,0.0,0.0,,,C,975619409564077
Raw,1646543890413,636005573000000,18,,-1329943102840388004,-0.9884319305419922,25.82710840215441,-9.39836519779946,8.865844143443438,7,13,0.0,16399,19108344763020,6,41.8,91.70865631103516,0.04130587354302406,16,0.0,0.0,1.57542003E9,,,,0,,1,5.94,38.199999999999996,0.0,0.0,,,C,975619409564077
Raw,1646543890413,636005573000000,18,,-1329943102840388004,-0.9884319305419922,25.82710840215441,-9.39836519779946,8.865844143443438,7,15,0.0,16399,19108346069236,16,33.1,-275.6217956542969,0.04890523478388786,16,0.0,0.0,1.57542003E9,,,,0,,1,5.94,29.5,0.0,0.0,,,C,975619409564077
Raw,1646543890413,636005573000000,18,,-1329943102840388004,-0.9884319305419922,25.82710840215441,-9.39836519779946,8.865844143443438,7,18,0.0,16399,19108340748788,31,27.2,-477.6656799316406,0.6934999823570251,16,0.0,0.0,1.57542003E9,,,,0,,1,5.94,23.599999999999998,0.0,0.0,,,C,975619409564077
Raw,1646543890413,636005573000000,18,,-1329943102840388004,-0.9884319305419922,25.82710840215441,-9.39836519779946,8.865844143443438,7,20,0.0,16399,19108336766258,19,31.3,462.6144714355469,0.6160897016525269,16,0.0,0.0,1.57542003E9,,,,0,,1,5.94,27.7,0.0,0.0,,,C,975619409564077
Raw,1646543890413,636005573000000,18,,-1329943102840388004,-0.9884319305419922,25.82710840215441,-9.39836519779946,8.865844143443438,7,23,0.0,16399,19108335323722,40,25.3,-459.6067810058594,0.7910000085830688,16,0.0,0.0,1.57542003E9,,,,0,,1,5.94,21.7,0.0,0.0,,,C,975619409564077
Raw,1646543890413,636005573000000,18,,-1329943102840388004,-0.9884319305419922,25.82710840215441,-9.39836519779946,8.865844143443438,7,29,0.0,16399,19108343018751,80,20.5,295.4404602050781,1.8610000610351562,16,0.0,0.0,1.57542003E9,,,,0,,1,5.94,16.9,0.0,0.0,,,C,975619409564077
Raw,1646543890413,636005573000000,18,,-1329943102840388004,-0.9884319305419922,25.82710840215441,-9.39836519779946,8.865844143443438,7,30,0.0,16399,19108328870691,53,22.9,98.96221923828125,1.0264999866485596,16,0.0,0.0,1.57542003E9,,,,0,,1,5.94,19.299999999999997,0.0,0.0,,,C,975619409564077
Raw,1646543890413,636005573000000,18,,-1329943102840388004,-0.9884319305419922,25.82710840215441,-9.39836519779946,8.865844143443438,7,23,0.0,49359,29890333853727,181,14.2,-783.313720703125,10.076000213623047,16,0.0,0.0,1.60368755E9,,,,0,,3,2.75,10.2,3848.491943359375,8.381082534790039,,,C,975619409564077
Raw,1646543890413,636005573000000,18,,-1329943102840388004,-0.9884319305419922,25.82710840215441,-9.39836519779946,8.865844143443438,7,21,0.0,49359,29890346507936,14,34.3,417.7879333496094,0.04382500797510147,16,0.0,0.0,1.60424998E9,,,,0,,3,2.75,30.299999999999997,3848.491943359375,8.381082534790039,,,C,975619409564077
Raw,1646543890413,636005573000000,18,,-1329943102840388004,-0.9884319305419922,25.82710840215441,-9.39836519779946,8.865844143443438,7,7,0.0,49359,29890348815971,14,34.3,-44.36394500732422,0.04082173854112625,16,0.0,0.0,1.60481254E9,,,,0,,3,2.75,30.299999999999997,3848.491943359375,8.381082534790039,,,C,975619409564077
Raw,1646543890413,636005573000000,18,,-1329943102840388004,-0.9884319305419922,25.82710840215441,-9.39836519779946,8.865844143443438,7,8,0.0,49359,29890340297055,61,22.4,-583.2262573242188,1.686500072479248,16,0.0,0.0,1.60537498E9,,,,0,,3,2.75,18.4,3848.491943359375,8.381082534790039,,,C,975619409564077
Raw,1646543890413,636005573000000,18,,-1329943102840388004,-0.9884319305419922,25.82710840215441,-9.39836519779946,8.865844143443438,7,4,0.0,23567,19108333929969,9,39.5,107.7716064453125,0.06230919808149338,16,0.0,0.0,1.57542003E9,,,,0,,6,5.85,35.2,-1463.1240234375,6.695160865783691,,,C,975619409564077
Raw,1646543890413,636005573000000,18,,-1329943102840388004,-0.9884319305419922,25.82710840215441,-9.39836519779946,8.865844143443438,7,9,0.0,23567,19108336811388,17,32.5,-404.1791076660156,0.06790715456008911,16,0.0,0.0,1.57542003E9,,,,0,,6,5.85,28.2,-1463.1240234375,6.695160865783691,,,C,975619409564077
Raw,1646543890413,636005573000000,18,,-1329943102840388004,-0.9884319305419922,25.82710840215441,-9.39836519779946,8.865844143443438,7,11,0.0,23567,19108340018359,21,30.4,-24.298397064208984,0.07460548728704453,16,0.0,0.0,1.57542003E9,,,,0,,6,5.85,26.099999999999998,-1463.1240234375,6.695160865783691,,,C,975619409564077
Raw,1646543890413,636005573000000,18,,-1329943102840388004,-0.9884319305419922,25.82710840215441,-9.39836519779946,8.865844143443438,7,12,0.0,23567,19108332179045,24,30.1,398.2318420410156,0.05389181897044182,16,0.0,0.0,1.57542003E9,,,,0,,6,5.85,25.8,-1463.1240234375,6.695160865783691,,,C,975619409564077
Raw,1646543890413,636005573000000,18,,-1329943102840388004,-0.9884319305419922,25.82710840215441,-9.39836519779946,8.865844143443438,7,36,0.0,23567,19108328585939,16,33.9,-419.39569091796875,0.06630868464708328,16,0.0,0.0,1.57542003E9,,,,0,,6,5.85,29.599999999999998,-1463.1240234375,6.695160865783691,,,C,975619409564077
Status,0,34,0,1,2,1575420032,28.70,120.00,23.00,1,1,1,25.1
Status,0,34,1,1,5,1575420032,31.10,49.00,47.00,1,1,1,27.5
Status,0,34,2,1,13,1575420032,41.50,82.00,61.00,1,1,1,37.9
Status,0,34,3,1,15,1575420032,28.50,182.00,69.00,1,1,1,24.9
Status,0,34,4,1,18,1575420032,27.50,314.00,42.00,1,1,1,23.9
Status,0,34,5,1,20,1575420032,29.50,68.00,25.00,1,1,1,25.9
Status,0,34,6,1,23,1575420032,26.10,267.00,23.00,1,1,1,22.5
Status,0,34,7,1,24,1575420032,20.80,166.00,3.00,0,1,1,17.199999
Status,0,34,8,1,29,1575420032,29.40,226.00,57.00,1,1,1,25.8
Status,0,34,9,1,30,1575420032,0.00,48.00,6.00,1,1,1,0.0
Status,0,34,10,2,138,1575420032,32.20,0.00,0.00,0,0,0,28.6
Status,0,34,11,3,6,1599750016,21.50,29.00,42.00,0,1,0,17.5
Status,0,34,12,3,22,1600312448,18.90,337.00,69.00,1,1,0,14.9
Status,0,34,13,3,23,1603687552,14.20,327.00,7.00,1,1,0,10.2
Status,0,34,14,3,21,1604249984,35.70,141.00,56.00,1,1,1,31.7
Status,0,34,15,3,7,1604812544,30.70,277.00,73.00,1,1,1,26.7
Status,0,34,16,3,8,1605374976,22.40,231.00,27.00,1,1,1,18.4
Status,0,34,17,6,4,1575420032,37.30,70.00,70.00,1,1,1,33.0
Status,0,34,18,6,9,1575420032,32.00,206.00,47.00,1,1,1,27.7
Status,0,34,19,6,11,1575420032,26.70,45.00,81.00,1,1,0,22.400002
Status,0,34,20,6,12,1575420032,27.80,123.00,31.00,1,1,1,23.5
Status,0,34,21,6,19,1575420032,19.60,42.00,15.00,0,1,0,15.3
Status,0,34,22,6,36,1575420032,32.40,316.00,36.00,1,1,0,28.100002
Status,0,34,23,6,5,1575420032,0.00,0.00,0.00,0,1,0,0.0
Status,0,34,24,1,18,1176450048,18.80,314.00,42.00,0,1,1,13.9
Status,0,34,25,1,23,1176450048,0.00,267.00,23.00,0,1,1,0.0
Status,0,34,26,1,24,1176450048,0.00,166.00,3.00,0,1,1,0.0
Status,0,34,27,1,30,1176450048,0.00,48.00,6.00,0,1,1,0.0
Status,0,34,28,6,4,1176450048,18.60,70.00,70.00,0,1,1,13.3
Status,0,34,29,6,9,1176450048,18.30,206.00,47.00,0,1,1,12.999999
Status,0,34,30,6,11,1176450048,11.60,45.00,81.00,0,1,0,6.3
Status,0,34,31,6,12,1176450048,18.50,123.00,31.00,0,1,1,13.2
Status,0,34,32,6,5,1176450048,0.00,0.00,0.00,0,1,0,0.0
Status,0,34,33,6,19,1176450048,0.00,42.00,15.00,0,1,0,0.0
Raw,1646543891413,636006573000000,18,,-1329943102840388013,-0.8993263244628906,25.394778276677243,-8.066905494351111,9.968773333051956,7,2,0.0,16399,19109334546470,24,28.7,466.86029052734375,0.09850329160690308,16,0.0,0.0,1.57542003E9,,,,0,,1,5.04,25.099999999999998,0.0,0.0,,,C,975620399011734
Raw,1646543891413,636006573000000,18,,-1329943102840388013,-0.8993263244628906,25.394778276677243,-8.066905494351111,9.968773333051956,7,5,0.0,16399,19109341870818,19,31.1,369.023193359375,0.6385896801948547,16,0.0,0.0,1.57542003E9,,,,0,,1,5.04,27.5,0.0,0.0,,,C,975620399011734
Raw,1646543891413,636006573000000,18,,-1329943102840388013,-0.8993263244628906,25.394778276677243,-8.066905494351111,9.968773333051956,7,13,0.0,16399,19109344762709,7,41.5,91.55103302001953,0.04170549288392067,16,0.0,0.0,1.57542003E9,,,,0,,1,5.04,37.9,0.0,0.0,,,C,975620399011734
Raw,1646543891413,636006573000000,18,,-1329943102840388013,-0.8993263244628906,25.394778276677243,-8.066905494351111,9.968773333051956,7,15,0.0,16399,19109346070116,27,28.5,-275.9258117675781,0.6345000267028809,16,0.0,0.0,1.57542003E9,,,,0,,1,5.04,24.9,0.0,0.0,,,C,975620399011734
Raw,1646543891413,636006573000000,18,,-1329943102840388013,-0.8993263244628906,25.394778276677243,-8.066905494351111,9.968773333051956,7,18,0.0,16399,19109340750325,31,27.5,-477.47540283203125,0.6934999823570251,16,0.0,0.0,1.57542003E9,,,,0,,1,5.04,23.9,0.0,0.0,,,C,975620399011734
Raw,1646543891413,636006573000000,18,,-1329943102840388013,-0.8993263244628906,25.394778276677243,-8.066905494351111,9.968773333051956,7,20,0.0,16399,19109336764742,24,29.5,462.179931640625,2.3790273666381836,16,0.0,0.0,1.57542003E9,,,,0,,1,5.04,25.9,0.0,0.0,,,C,975620399011734
Raw,1646543891413,636006573000000,18,,-1329943102840388013,-0.8993263244628906,25.394778276677243,-8.066905494351111,9.968773333051956,7,23,0.0,16399,19109335325201,35,26.1,-460.9388427734375,0.7310000061988831,16,0.0,0.0,1.57542003E9,,,,0,,1,5.04,22.5,0.0,0.0,,,C,975620399011734
Raw,1646543891413,636006573000000,18,,-1329943102840388013,-0.8993263244628906,25.394778276677243,-8.066905494351111,9.968773333051956,7,29,0.0,16399,19109343017704,24,29.4,296.27069091796875,7.536456108093262,16,0.0,0.0,1.57542003E9,,,,0,,1,5.04,25.799999999999997,0.0,0.0,,,C,975620399011734
Raw,1646543891413,636006573000000,18,,-1329943102840388013,-0.8993263244628906,25.394778276677243,-8.066905494351111,9.968773333051956,7,22,0.0,49359,29891348326370,106,18.9,-278.4434509277344,2.808500051498413,16,0.0,0.0,1.60031245E9,,,,0,,3,2.02,14.899999999999999,3849.170654296875,8.296375274658203,,,C,975620399011734
Raw,1646543891413,636006573000000,18,,-1329943102840388013,-0.8993263244628906,25.394778276677243,-8.066905494351111,9.968773333051956,7,21,0.0,49359,29891346506499,13,35.7,417.6170349121094,0.042741142213344574,16,0.0,0.0,1.60424998E9,,,,0,,3,2.02,31.700000000000003,3849.170654296875,8.296375274658203,,,C,975620399011734
Raw,1646543891413,636006573000000,18,,-1329943102840388013,-0.8993263244628906,25.394778276677243,-8.066905494351111,9.968773333051956,7,7,0.0,49359,29891348816086,21,30.7,-44.523529052734375,0.07478350400924683,16,0.0,0.0,1.60481254E9,,,,0,,3,2.02,26.7,3849.170654296875,8.296375274658203,,,C,975620399011734
Raw,1646543891413,636006573000000,18,,-1329943102840388013,-0.8993263244628906,25.394778276677243,-8.066905494351111,9.968773333051956,7,4,0.0,23567,19109333929617,11,37.3,107.59056091308594,0.06369834393262863,16,0.0,0.0,1.57542003E9,,,,0,,6,4.95,33.0,-1462.8939208984375,6.674427032470703,,,C,975620399011734
Raw,1646543891413,636006573000000,18,,-1329943102840388013,-0.8993263244628906,25.394778276677243,-8.066905494351111,9.968773333051956,7,9,0.0,23567,19109336812722,19,32.0,-404.3417663574219,0.07009553164243698,16,0.0,0.0,1.57542003E9,,,,0,,6,4.95,27.7,-1462.8939208984375,6.674427032470703,,,C,975620399011734
Raw,1646543891413,636006573000000,18,,-1329943102840388013,-0.8993263244628906,25.394778276677243,-8.066905494351111,9.968773333051956,7,11,0.0,23567,19109340018455,35,26.7,-24.558815002441406,0.6414332389831543,16,0.0,0.0,1.57542003E9,,,,0,,6,4.95,22.4,-1462.8939208984375,6.674427032470703,,,C,975620399011734
Raw,1646543891413,636006573000000,18,,-1329943102840388013,-0.8993263244628906,25.394778276677243,-8.066905494351111,9.968773333051956,7,12,0.0,23567,19109332177704,31,27.8,397.9462585449219,1.1804684400558472,16,0.0,0.0,1.57542003E9,,,,0,,6,4.95,23.5,-1462.8939208984375,6.674427032470703,,,C,975620399011734
Raw,1646543891413,636006573000000,18,,-1329943102840388013,-0.8993263244628906,25.394778276677243,-8.066905494351111,9.968773333051956,7,19,0.0,23567,19109321289110,92,19.6,511.319091796875,2.046999931335449,16,0.0,0.0,1.57542003E9,,,,0,,6,4.95,15.3,-1462.8939208984375,6.674427032470703,,,C,975620399011734
Raw,1646543891413,636006573000000,18,,-1329943102840388013,-0.8993263244628906,25.394778276677243,-8.066905494351111,9.968773333051956,7,36,0.0,23567,19109328587336,17,32.4,-419.7193908691406,0.06790715456008911,16,0.0,0.0,1.57542003E9,,,,0,,6,4.95,28.099999999999998,-1462.8939208984375,6.674427032470703,,,C,975620399011734
Status,0,35,0,1,2,1575420032,32.50,120.00,23.00,1,1,1,28.9
Status,0,35,1,1,5,1575420032,33.30,49.00,47.00,1,1,1,29.699999
Status,0,35,2,1,13,1575420032,39.70,82.00,61.00,1,1,1,36.100002
Status,0,35,3,1,15,1575420032,28.50,182.00,69.00,1,1,1,24.9
Status,0,35,4,1,18,1575420032,28.10,314.00,42.00,1,1,1,24.5
Status,0,35,5,1,20,1575420032,32.10,68.00,25.00,1,1,1,28.499998
Status,0,35,6,1,23,1575420032,26.10,267.00,23.00,1,1,1,22.5
Status,0,35,7,1,24,1575420032,20.80,166.00,3.00,0,1,1,17.199999
Status,0,35,8,1,29,1575420032,35.40,226.00,57.00,1,1,1,31.800001
Status,0,35,9,1,30,1575420032,0.00,48.00,6.00,1,1,1,0.0
Status,0,35,10,2,138,1575420032,36.30,0.00,0.00,0,0,0,32.7
Status,0,35,11,3,6,1599750016,18.90,29.00,42.00,0,1,0,14.9
Status,0,35,12,3,22,1600312448,18.90,337.00,69.00,1,1,0,14.9
Status,0,35,13,3,23,1603687552,21.90,327.00,7.00,1,1,0,17.9
Status,0,35,14,3,21,1604249984,35.80,141.00,56.00,1,1,1,31.8
Status,0,35,15,3,7,1604812544,30.70,277.00,73.00,1,1,1,26.7
Status,0,35,16,3,8,1605374976,22.40,231.00,27.00,1,1,1,18.4
Status,0,35,17,6,4,1575420032,33.40,70.00,70.00,1,1,1,29.100002
Status,0,35,18,6,9,1575420032,26.70,206.00,47.00,1,1,1,22.400002
Status,0,35,19,6,11,1575420032,26.70,45.00,81.00,1,1,0,22.400002
Status,0,35,20,6,12,1575420032,23.70,123.00,31.00,1,1,1,19.400002
Status,0,35,21,6,19,1575420032,19.60,42.00,15.00,0,1,0,15.3
Status,0,35,22,6,36,1575420032,35.50,316.00,36.00,1,1,0,31.2
Status,0,35,23,6,5,1575420032,0.00,0.00,0.00,0,1,0,0.0
Status,0,35,24,1,18,1176450048,20.50,314.00,42.00,0,1,1,15.6
Status,0,35,25,1,23,1176450048,0.00,267.00,23.00,0,1,1,0.0
Status,0,35,26,1,24,1176450048,0.00,166.00,3.00,0,1,1,0.0
Status,0,35,27,1,30,1176450048,0.00,48.00,6.00,0,1,1,0.0
Status,0,35,28,6,4,1176450048,18.60,70.00,70.00,0,1,1,13.3
Status,0,35,29,6,9,1176450048,18.30,206.00,47.00,0,1,1,12.999999
Status,0,35,30,6,11,1176450048,11.60,45.00,81.00,0,1,0,6.3
Status,0,35,31,6,12,1176450048,18.50,123.00,31.00,0,1,1,13.2
Status,0,35,32,6,5,1176450048,0.00,0.00,0.00,0,1,0,0.0
Status,0,35,33,6,19,1176450048,0.00,42.00,15.00,0,1,0,0.0
Status,0,35,34,6,36,1176450048,0.00,316.00,36.00,0,1,0,0.0
Raw,1646543892413,636007573000000,18,,-1329943102840388019,-0.8001861572265625,26.009709472418763,-9.469420175334646,10.173422420522344,7,2,0.0,16399,19110334544936,17,32.5,466.6622009277344,0.03829437494277954,16,0.0,0.0,1.57542003E9,,,,0,,1,7.36,28.9,0.0,0.0,,,C,975621398795222
Raw,1646543892413,636007573000000,18,,-1329943102840388019,-0.8001861572265625,26.009709472418763,-9.469420175334646,10.173422420522344,7,5,0.0,16399,19110341869619,16,33.3,368.63848876953125,0.05640523508191109,16,0.0,0.0,1.57542003E9,,,,0,,1,7.36,29.699999999999996,0.0,0.0,,,C,975621398795222
Raw,1646543892413,636007573000000,18,,-1329943102840388019,-0.8001861572265625,26.009709472418763,-9.469420175334646,10.173422420522344,7,13,0.0,16399,19110344762413,8,39.7,91.31207275390625,0.04220025613903999,16,0.0,0.0,1.57542003E9,,,,0,,1,7.36,36.1,0.0,0.0,,,C,975621398795222
Raw,1646543892413,636007573000000,18,,-1329943102840388019,-0.8001861572265625,26.009709472418763,-9.469420175334646,10.173422420522344,7,18,0.0,16399,19110340751974,27,28.1,-477.6942138671875,0.643500030040741,16,0.0,0.0,1.57542003E9,,,,0,,1,7.36,24.5,0.0,0.0,,,C,975621398795222
Raw,1646543892413,636007573000000,18,,-1329943102840388019,-0.8001861572265625,26.009709472418763,-9.469420175334646,10.173422420522344,7,20,0.0,16399,19110336763207,17,32.1,462.0014343261719,0.03529437631368637,16,0.0,0.0,1.57542003E9,,,,0,,1,7.36,28.5,0.0,0.0,,,C,975621398795222
Raw,1646543892413,636007573000000,18,,-1329943102840388019,-0.8001861572265625,26.009709472418763,-9.469420175334646,10.173422420522344,7,29,0.0,16399,19110343016708,13,35.4,295.8900146484375,0.04739195108413696,16,0.0,0.0,1.57542003E9,,,,0,,1,7.36,31.799999999999997,0.0,0.0,,,C,975621398795222
Raw,1646543892413,636007573000000,18,,-1329943102840388019,-0.8001861572265625,26.009709472418763,-9.469420175334646,10.173422420522344,7,6,0.0,49359,29892343888356,106,18.9,559.7156372070312,2.8010001182556152,16,0.0,0.0,1.59975002E9,,,,0,,3,4.67,14.899999999999999,3849.17919921875,8.3395357131958,,,C,975621398795222
Raw,1646543892413,636007573000000,18,,-1329943102840388019,-0.8001861572265625,26.009709472418763,-9.469420175334646,10.173422420522344,7,23,0.0,49359,29892333858924,70,21.9,-783.9492797851562,1.7860000133514404,16,0.0,0.0,1.60368755E9,,,,0,,3,4.67,17.9,3849.17919921875,8.3395357131958,,,C,975621398795222
Raw,1646543892413,636007573000000,18,,-1329943102840388019,-0.8001861572265625,26.009709472418763,-9.469420175334646,10.173422420522344,7,21,0.0,49359,29892346505135,13,35.8,417.41656494140625,0.042741142213344574,16,0.0,0.0,1.60424998E9,,,,0,,3,4.67,31.799999999999997,3849.17919921875,8.3395357131958,,,C,975621398795222
Raw,1646543892413,636007573000000,18,,-1329943102840388019,-0.8001861572265625,26.009709472418763,-9.469420175334646,10.173422420522344,7,4,0.0,23567,19110333929289,16,33.4,107.32877349853516,0.06780868768692017,16,0.0,0.0,1.57542003E9,,,,0,,6,7.26,29.099999999999998,-1462.843994140625,6.658188343048096,,,C,975621398795222
Raw,1646543892413,636007573000000,18,,-1329943102840388019,-0.8001861572265625,26.009709472418763,-9.469420175334646,10.173422420522344,7,9,0.0,23567,19110336814017,35,26.7,-404.6728210449219,0.07055222988128662,16,0.0,0.0,1.57542003E9,,,,0,,6,7.26,22.4,-1462.843994140625,6.658188343048096,,,C,975621398795222
Raw,1646543892413,636007573000000,18,,-1329943102840388019,-0.8001861572265625,26.009709472418763,-9.469420175334646,10.173422420522344,7,12,0.0,23567,19110332176373,53,23.7,397.67376708984375,0.6959616541862488,16,0.0,0.0,1.57542003E9,,,,0,,6,7.26,19.4,-1462.843994140625,6.658188343048096,,,C,975621398795222
Raw,1646543892413,636007573000000,18,,-1329943102840388019,-0.8001861572265625,26.009709472418763,-9.469420175334646,10.173422420522344,7,36,0.0,23567,19110328588734,13,35.5,-419.9620666503906,0.0638919547200203,16,0.0,0.0,1.57542003E9,,,,0,,6,7.26,31.2,-1462.843994140625,6.658188343048096,,,C,975621398795222
Status,0,35,0,1,2,1575420032,34.50,120.00,23.00,1,1,1,30.9
Status,0,35,1,1,5,1575420032,26.80,49.00,47.00,1,1,1,23.199999
Status,0,35,2,1,13,1575420032,36.30,82.00,61.00,1,1,1,32.7
Status,0,35,3,1,15,1575420032,21.80,182.00,69.00,1,1,1,18.199999
Status,0,35,4,1,18,1575420032,32.30,314.00,42.00,1,1,1,28.699999
Status,0,35,5,1,20,1575420032,29.70,68.00,25.00,1,1,1,26.1
Status,0,35,6,1,23,1575420032,20.60,267.00,23.00,1,1,1,17.0
Status,0,35,7,1,24,1575420032,20.80,166.00,3.00,0,1,1,17.199999
Status,0,35,8,1,29,1575420032,34.80,226.00,57.00,1,1,1,31.199999
Status,0,35,9,1,30,1575420032,26.90,48.00,6.00,1,1,1,23.3
Status,0,35,10,2,138,1575420032,36.10,0.00,0.00,0,0,0,32.5
Status,0,35,11,3,6,1599750016,18.90,29.00,42.00,0,1,0,14.9
Status,0,35,12,3,22,1600312448,18.90,337.00,69.00,1,1,0,14.9
Status,0,35,13,3,23,1603687552,25.40,327.00,7.00,1,1,0,21.4
Status,0,35,14,3,21,1604249984,31.50,141.00,56.00,1,1,1,27.5
Status,0,35,15,3,7,1604812544,27.00,277.00,73.00,1,1,1,23.0
Status,0,35,16,3,8,1605374976,18.10,231.00,27.00,1,1,1,14.1
Status,0,35,17,6,4,1575420032,30.60,70.00,70.00,1,1,1,26.3
Status,0,35,18,6,9,1575420032,30.80,206.00,47.00,1,1,1,26.5
Status,0,35,19,6,11,1575420032,26.70,45.00,81.00,1,1,0,22.400002
Status,0,35,20,6,12,1575420032,20.50,123.00,31.00,1,1,1,16.2
Status,0,35,21,6,19,1575420032,17.90,42.00,15.00,0,1,0,13.599999
Status,0,35,22,6,36,1575420032,32.50,316.00,36.00,1,1,0,28.2
Status,0,35,23,6,5,1575420032,0.00,0.00,0.00,0,1,0,0.0
Status,0,35,24,1,18,1176450048,23.70,314.00,42.00,1,1,1,18.800001
Status,0,35,25,1,23,1176450048,18.60,267.00,23.00,0,1,1,13.700001
Status,0,35,26,1,24,1176450048,0.00,166.00,3.00,0,1,1,0.0
Status,0,35,27,1,30,1176450048,0.00,48.00,6.00,0,1,1,0.0
Status,0,35,28,6,4,1176450048,17.90,70.00,70.00,0,1,1,12.599999
Status,0,35,29,6,9,1176450048,18.30,206.00,47.00,0,1,1,12.999999
Status,0,35,30,6,11,1176450048,11.60,45.00,81.00,0,1,0,6.3
Status,0,35,31,6,12,1176450048,18.50,123.00,31.00,0,1,1,13.2
Status,0,35,32,6,5,1176450048,0.00,0.00,0.00,0,1,0,0.0
Status,0,35,33,6,19,1176450048,0.00,42.00,15.00,0,1,0,0.0
Status,0,35,34,6,36,1176450048,0.00,316.00,36.00,0,1,0,0.0
Raw,1646543893413,636008573000000,18,,-1329943102840388034,-0.8801612854003906,25.08607394702267,-10.069651264693308,9.814763621653835,7,2,0.0,16399,19111334543385,14,34.5,466.74981689453125,0.03199565410614014,16,0.0,0.0,1.57542003E9,,,,0,,1,7.95,30.9,0.0,0.0,,,C,975622409818086
Raw,1646543893413,636008573000000,18,,-1329943102840388034,-0.8801612854003906,25.08607394702267,-10.069651264693308,9.814763621653835,7,5,0.0,16399,19111341868330,31,26.8,368.80816650390625,0.7519999742507935,16,0.0,0.0,1.57542003E9,,,,0,,1,7.95,23.2,0.0,0.0,,,C,975622409818086
Raw,1646543893413,636008573000000,18,,-1329943102840388034,-0.8801612854003906,25.08607394702267,-10.069651264693308,9.814763621653835,7,13,0.0,16399,19111344762102,12,36.3,91.50621032714844,0.044997572898864746,16,0.0,0.0,1.57542003E9,,,,0,,1,7.95,32.699999999999996,0.0,0.0,,,C,975622409818086
Raw,1646543893413,636008573000000,18,,-1329943102840388034,-0.8801612854003906,25.08607394702267,-10.069651264693308,9.814763621653835,7,15,0.0,16399,19111346072046,61,21.8,-276.43011474609375,1.7755000591278076,16,0.0,0.0,1.57542003E9,,,,0,,1,7.95,18.2,0.0,0.0,,,C,975622409818086
Raw,1646543893413,636008573000000,18,,-1329943102840388034,-0.8801612854003906,25.08607394702267,-10.069651264693308,9.814763621653835,7,18,0.0,16399,19111340753543,17,32.3,-477.7853698730469,0.05929437652230263,16,0.0,0.0,1.57542003E9,,,,0,,1,7.95,28.699999999999996,0.0,0.0,,,C,975622409818086
Raw,1646543893413,636008573000000,18,,-1329943102840388034,-0.8801612854003906,25.08607394702267,-10.069651264693308,9.814763621653835,7,20,0.0,16399,19111336761656,21,29.7,462.0826416015625,0.06359104067087173,16,0.0,0.0,1.57542003E9,,,,0,,1,7.95,26.099999999999998,0.0,0.0,,,C,975622409818086
Raw,1646543893413,636008573000000,18,,-1329943102840388034,-0.8801612854003906,25.08607394702267,-10.069651264693308,9.814763621653835,7,23,0.0,16399,19111335328343,70,20.6,-460.111083984375,1.878999948501587,16,0.0,0.0,1.57542003E9,,,,0,,1,7.95,17.0,0.0,0.0,,,C,975622409818086
Raw,1646543893413,636008573000000,18,,-1329943102840388034,-0.8801612854003906,25.08607394702267,-10.069651264693308,9.814763621653835,7,29,0.0,16399,19111343015722,13,34.8,296.0559387207031,0.04739195108413696,16,0.0,0.0,1.57542003E9,,,,0,,1,7.95,31.199999999999996,0.0,0.0,,,C,975622409818086
Raw,1646543893413,636008573000000,18,,-1329943102840388034,-0.8801612854003906,25.08607394702267,-10.069651264693308,9.814763621653835,7,30,0.0,16399,19111328869710,31,26.9,98.32474517822266,0.7565000057220459,16,0.0,0.0,1.57542003E9,,,,0,,1,7.95,23.299999999999997,0.0,0.0,,,C,975622409818086
Raw,1646543893413,636008573000000,18,,-1329943102840388034,-0.8801612854003906,25.08607394702267,-10.069651264693308,9.814763621653835,7,23,0.0,49359,29893333861607,40,25.4,-784.1642456054688,0.793999969959259,16,0.0,0.0,1.60368755E9,,,,0,,3,5.86,21.4,3849.56103515625,8.264516830444336,,,C,975622409818086
Raw,1646543893413,636008573000000,18,,-1329943102840388034,-0.8801612854003906,25.08607394702267,-10.069651264693308,9.814763621653835,7,21,0.0,49359,29893346503795,19,31.5,417.5875549316406,0.05974666774272919,16,0.0,0.0,1.60424998E9,,,,0,,3,5.86,27.5,3849.56103515625,8.264516830444336,,,C,975622409818086
Raw,1646543893413,636008573000000,18,,-1329943102840388034,-0.8801612854003906,25.08607394702267,-10.069651264693308,9.814763621653835,7,7,0.0,49359,29893348816376,31,27.0,-44.55380630493164,1.368499994277954,16,0.0,0.0,1.60481254E9,,,,0,,3,5.86,23.0,3849.56103515625,8.264516830444336,,,C,975622409818086
Raw,1646543893413,636008573000000,18,,-1329943102840388034,-0.8801612854003906,25.08607394702267,-10.069651264693308,9.814763621653835,7,8,0.0,49359,29893340302939,106,18.1,-583.6744384765625,2.7965002059936523,16,0.0,0.0,1.60537498E9,,,,0,,3,5.86,14.100000000000001,3849.56103515625,8.264516830444336,,,C,975622409818086
Raw,1646543893413,636008573000000,18,,-1329943102840388034,-0.8801612854003906,25.08607394702267,-10.069651264693308,9.814763621653835,7,4,0.0,23567,19111333928920,21,30.6,107.36807250976562,0.6469864845275879,16,0.0,0.0,1.57542003E9,,,,0,,6,7.88,26.3,-1462.871337890625,6.64747953414917,,,C,975622409818086
Raw,1646543893413,636008573000000,18,,-1329943102840388034,-0.8801612854003906,25.08607394702267,-10.069651264693308,9.814763621653835,7,9,0.0,23567,19111336815408,21,30.8,-404.5990905761719,1.216367483139038,16,0.0,0.0,1.57542003E9,,,,0,,6,7.88,26.5,-1462.871337890625,6.64747953414917,,,C,975622409818086
Raw,1646543893413,636008573000000,18,,-1329943102840388034,-0.8801612854003906,25.08607394702267,-10.069651264693308,9.814763621653835,7,12,0.0,23567,19111332175016,80,20.5,397.9516296386719,1.1755000352859497,16,0.0,0.0,1.57542003E9,,,,0,,6,7.88,16.2,-1462.871337890625,6.64747953414917,,,C,975622409818086
Raw,1646543893413,636008573000000,18,,-1329943102840388034,-0.8801612854003906,25.08607394702267,-10.069651264693308,9.814763621653835,7,19,0.0,23567,19111321285716,122,17.9,511.005126953125,2.267000198364258,16,0.0,0.0,1.57542003E9,,,,0,,6,7.88,13.599999999999998,-1462.871337890625,6.64747953414917,,,C,975622409818086
Raw,1646543893413,636008573000000,18,,-1329943102840388034,-0.8801612854003906,25.08607394702267,-10.069651264693308,9.814763621653835,7,36,0.0,23567,19111328590157,17,32.5,-419.93804931640625,0.06790715456008911,16,0.0,0.0,1.57542003E9,,,,0,,6,7.88,28.2,-1462.871337890625,6.64747953414917,,,C,975622409818086
Raw,1646543893413,636008573000000,18,,-1329943102840388034,-0.8801612854003906,25.08607394702267,-10.069651264693308,9.814763621653835,7,18,0.0,81935,19111340761412,12,23.7,-477.3183898925781,0.9314999580383301,16,0.0,0.0,1.17645005E9,,,,0,,1,1.2,18.799999999999997,-7874.36572265625,6.8653340339660645,,,Q,975622409818086
Status,0,35,0,1,2,1575420032,35.30,120.00,23.00,1,1,1,31.699999
Status,0,35,1,1,5,1575420032,26.60,49.00,47.00,1,1,1,23.0
Status,0,35,2,1,13,1575420032,36.00,82.00,61.00,1,1,1,32.4
Status,0,35,3,1,15,1575420032,24.30,182.00,69.00,1,1,1,20.699999
Status,0,35,4,1,18,1575420032,33.80,314.00,42.00,1,1,1,30.199999
Status,0,35,5,1,20,1575420032,27.40,68.00,25.00,1,1,1,23.8
Status,0,35,6,1,23,1575420032,23.50,267.00,23.00,1,1,1,19.9
Status,0,35,7,1,24,1575420032,20.80,166.00,3.00,0,1,1,17.199999
Status,0,35,8,1,29,1575420032,35.30,226.00,57.00,1,1,1,31.699999
Status,0,35,9,1,30,1575420032,26.30,48.00,6.00,1,1,1,22.699999
Status,0,35,10,2,138,1575420032,33.80,0.00,0.00,0,0,0,30.199999
Status,0,35,11,3,6,1599750016,18.90,29.00,42.00,0,1,0,14.9
Status,0,35,12,3,22,1600312448,18.90,337.00,69.00,1,1,0,14.9
Status,0,35,13,3,23,1603687552,26.40,327.00,7.00,1,1,0,22.4
Status,0,35,14,3,21,1604249984,30.20,141.00,56.00,1,1,1,26.2
Status,0,35,15,3,7,1604812544,31.90,277.00,73.00,1,1,1,27.9
Status,0,35,16,3,8,1605374976,18.10,231.00,27.00,1,1,1,14.1
Status,0,35,17,6,4,1575420032,31.20,70.00,70.00,1,1,1,26.900002
Status,0,35,18,6,9,1575420032,30.70,206.00,47.00,1,1,1,26.400002
Status,0,35,19,6,11,1575420032,18.00,45.00,81.00,1,1,0,13.7
Status,0,35,20,6,12,1575420032,22.30,123.00,31.00,1,1,1,18.0
Status,0,35,21,6,19,1575420032,22.00,42.00,15.00,0,1,0,17.7
Status,0,35,22,6,36,1575420032,31.10,316.00,36.00,1,1,0,26.8
Status,0,35,23,6,5,1575420032,0.00,0.00,0.00,0,1,0,0.0
Status,0,35,24,1,18,1176450048,23.40,314.00,42.00,1,1,1,18.5
Status,0,35,25,1,23,1176450048,18.60,267.00,23.00,0,1,1,13.700001
Status,0,35,26,1,24,1176450048,0.00,166.00,3.00,0,1,1,0.0
Status,0,35,27,1,30,1176450048,0.00,48.00,6.00,0,1,1,0.0
Status,0,35,28,6,4,1176450048,17.90,70.00,70.00,0,1,1,12.599999
Status,0,35,29,6,9,1176450048,18.30,206.00,47.00,0,1,1,12.999999
Status,0,35,30,6,11,1176450048,11.60,45.00,81.00,0,1,0,6.3
Status,0,35,31,6,12,1176450048,18.50,123.00,31.00,0,1,1,13.2
Status,0,35,32,6,5,1176450048,0.00,0.00,0.00,0,1,0,0.0
Status,0,35,33,6,19,1176450048,0.00,42.00,15.00,0,1,0,0.0
Status,0,35,34,6,36,1176450048,0.00,316.00,36.00,0,1,0,0.0
Raw,1646543894413,636009573000000,18,,-1329943102840388047,-0.7249622344970703,24.710096113267355,-9.964882034000183,9.881625889481082,7,2,0.0,16399,19112334541833,13,35.3,466.6289367675781,0.03089195117354393,16,0.0,0.0,1.57542003E9,,,,0,,1,8.42,31.699999999999996,0.0,0.0,,,C,975623406392097
Raw,1646543894413,636009573000000,18,,-1329943102840388047,-0.7249622344970703,24.710096113267355,-9.964882034000183,9.881625889481082,7,5,0.0,16399,19112341867175,31,26.6,368.5798034667969,0.7519999742507935,16,0.0,0.0,1.57542003E9,,,,0,,1,8.42,23.0,0.0,0.0,,,C,975623406392097
Raw,1646543894413,636009573000000,18,,-1329943102840388047,-0.7249622344970703,24.710096113267355,-9.964882034000183,9.881625889481082,7,13,0.0,16399,19112344761797,12,36.0,91.45037078857422,0.044997572898864746,16,0.0,0.0,1.57542003E9,,,,0,,1,8.42,32.4,0.0,0.0,,,C,975623406392097
Raw,1646543894413,636009573000000,18,,-1329943102840388047,-0.7249622344970703,24.710096113267355,-9.964882034000183,9.881625889481082,7,15,0.0,16399,19112346072939,46,24.3,-276.1922302246094,0.8644999861717224,16,0.0,0.0,1.57542003E9,,,,0,,1,8.42,20.7,0.0,0.0,,,C,975623406392097
Raw,1646543894413,636009573000000,18,,-1329943102840388047,-0.7249622344970703,24.710096113267355,-9.964882034000183,9.881625889481082,7,18,0.0,16399,19112340755130,14,33.8,-477.9398193359375,0.623876690864563,16,0.0,0.0,1.57542003E9,,,,0,,1,8.42,30.199999999999996,0.0,0.0,,,C,975623406392097
Raw,1646543894413,636009573000000,18,,-1329943102840388047,-0.7249622344970703,24.710096113267355,-9.964882034000183,9.881625889481082,7,20,0.0,16399,19112336760135,31,27.4,461.6239318847656,0.6694999933242798,16,0.0,0.0,1.57542003E9,,,,0,,1,8.42,23.799999999999997,0.0,0.0,,,C,975623406392097
Raw,1646543894413,636009573000000,18,,-1329943102840388047,-0.7249622344970703,24.710096113267355,-9.964882034000183,9.881625889481082,7,23,0.0,16399,19112335329996,53,23.5,-460.8912658691406,0.9210000038146973,16,0.0,0.0,1.57542003E9,,,,0,,1,8.42,19.9,0.0,0.0,,,C,975623406392097
Raw,1646543894413,636009573000000,18,,-1329943102840388047,-0.7249622344970703,24.710096113267355,-9.964882034000183,9.881625889481082,7,29,0.0,16399,19112343014713,13,35.3,295.98193359375,0.04739195108413696,16,0.0,0.0,1.57542003E9,,,,0,,1,8.42,31.699999999999996,0.0,0.0,,,C,975623406392097
Raw,1646543894413,636009573000000,18,,-1329943102840388047,-0.7249622344970703,24.710096113267355,-9.964882034000183,9.881625889481082,7,30,0.0,16399,19112328869404,35,26.3,98.372314453125,0.7414999604225159,16,0.0,0.0,1.57542003E9,,,,0,,1,8.42,22.7,0.0,0.0,,,C,975623406392097
Raw,1646543894413,636009573000000,18,,-1329943102840388047,-0.7249622344970703,24.710096113267355,-9.964882034000183,9.881625889481082,7,23,0.0,49359,29894333864120,35,26.4,-784.4446411132812,0.7339999675750732,16,0.0,0.0,1.60368755E9,,,,0,,3,6.23,22.4,3849.388671875,8.196517944335938,,,C,975623406392097
Raw,1646543894413,636009573000000,18,,-1329943102840388047,-0.7249622344970703,24.710096113267355,-9.964882034000183,9.881625889481082,7,21,0.0,49359,29894346502393,21,30.2,417.5325012207031,0.07779868692159653,16,0.0,0.0,1.60424998E9,,,,0,,3,6.23,26.2,3849.388671875,8.196517944335938,,,C,975623406392097
Raw,1646543894413,636009573000000,18,,-1329943102840388047,-0.7249622344970703,24.710096113267355,-9.964882034000183,9.881625889481082,7,7,0.0,49359,29894348816574,19,31.9,-44.6788444519043,1.1775882244110107,16,0.0,0.0,1.60481254E9,,,,0,,3,6.23,27.9,3849.388671875,8.196517944335938,,,C,975623406392097
Raw,1646543894413,636009573000000,18,,-1329943102840388047,-0.7249622344970703,24.710096113267355,-9.964882034000183,9.881625889481082,7,4,0.0,23567,19112333928575,21,31.2,107.30110931396484,0.07610549032688141,16,0.0,0.0,1.57542003E9,,,,0,,6,8.36,26.9,-1462.9808349609375,6.638332366943359,,,C,975623406392097
Raw,1646543894413,636009573000000,18,,-1329943102840388047,-0.7249622344970703,24.710096113267355,-9.964882034000183,9.881625889481082,7,9,0.0,23567,19112336816757,21,30.7,-404.715576171875,0.07460548728704453,16,0.0,0.0,1.57542003E9,,,,0,,6,8.36,26.4,-1462.9808349609375,6.638332366943359,,,C,975623406392097
Raw,1646543894413,636009573000000,18,,-1329943102840388047,-0.7249622344970703,24.710096113267355,-9.964882034000183,9.881625889481082,7,11,0.0,23567,19112340018658,122,18.0,-24.795265197753906,2.8955001831054688,16,0.0,0.0,1.57542003E9,,,,0,,6,8.36,13.7,-1462.9808349609375,6.638332366943359,,,C,975623406392097
Raw,1646543894413,636009573000000,18,,-1329943102840388047,-0.7249622344970703,24.710096113267355,-9.964882034000183,9.881625889481082,7,12,0.0,23567,19112332173710,61,22.3,397.3902893066406,1.005500078201294,16,0.0,0.0,1.57542003E9,,,,0,,6,8.36,18.0,-1462.9808349609375,6.638332366943359,,,C,975623406392097
Raw,1646543894413,636009573000000,18,,-1329943102840388047,-0.7249622344970703,24.710096113267355,-9.964882034000183,9.881625889481082,7,19,0.0,23567,19112321283982,70,22.0,510.6340637207031,1.0069999694824219,16,0.0,0.0,1.57542003E9,,,,0,,6,8.36,17.7,-1462.9808349609375,6.638332366943359,,,C,975623406392097
Raw,1646543894413,636009573000000,18,,-1329943102840388047,-0.7249622344970703,24.710096113267355,-9.964882034000183,9.881625889481082,7,36,0.0,23567,19112328591567,21,31.1,-420.0561828613281,0.07460548728704453,16,0.0,0.0,1.57542003E9,,,,0,,6,8.36,26.8,-1462.9808349609375,6.638332366943359,,,C,975623406392097
Raw,1646543894413,636009573000000,18,,-1329943102840388047,-0.7249622344970703,24.710096113267355,-9.964882034000183,9.881625889481082,7,18,0.0,81935,19112340763004,12,23.4,-478.184814453125,0.9314999580383301,16,0.0,0.0,1.17645005E9,,,,0,,1,2.0,18.5,-7874.36572265625,6.8653340339660645,,,Q,975623406392097
Status,0,35,0,1,2,1575420032,34.90,120.00,23.00,1,1,1,31.300001
Status,0,35,1,1,5,1575420032,27.70,49.00,47.00,1,1,1,24.1
Status,0,35,2,1,13,1575420032,35.60,82.00,61.00,1,1,1,31.999998
Status,0,35,3,1,15,1575420032,24.30,182.00,69.00,1,1,1,20.699999
Status,0,35,4,1,18,1575420032,34.00,314.00,42.00,1,1,1,30.4
Status,0,35,5,1,20,1575420032,26.80,68.00,25.00,1,1,1,23.199999
Status,0,35,6,1,23,1575420032,28.60,267.00,23.00,1,1,1,25.0
Status,0,35,7,1,24,1575420032,20.80,166.00,3.00,0,1,1,17.199999
Status,0,35,8,1,29,1575420032,35.10,226.00,57.00,1,1,1,31.499998
Status,0,35,9,1,30,1575420032,26.20,48.00,6.00,1,1,1,22.6
Status,0,35,10,2,138,1575420032,33.40,0.00,0.00,0,0,0,29.800001
Status,0,35,11,3,6,1599750016,18.90,29.00,42.00,0,1,0,14.9
Status,0,35,12,3,22,1600312448,18.90,337.00,69.00,1,1,0,14.9
Status,0,35,13,3,23,1603687552,26.50,327.00,7.00,1,1,0,22.5
Status,0,35,14,3,21,1604249984,30.70,141.00,56.00,1,1,1,26.7
Status,0,35,15,3,7,1604812544,33.30,277.00,73.00,1,1,1,29.3
Status,0,35,16,3,8,1605374976,18.10,231.00,27.00,1,1,1,14.1
Status,0,35,17,6,4,1575420032,33.10,70.00,70.00,1,1,1,28.8
Status,0,35,18,6,9,1575420032,33.50,206.00,47.00,1,1,1,29.2
Status,0,35,19,6,11,1575420032,18.00,45.00,81.00,1,1,0,13.7
Status,0,35,20,6,12,1575420032,20.80,123.00,31.00,1,1,1,16.5
Status,0,35,21,6,19,1575420032,22.00,42.00,15.00,0,1,0,17.7
Status,0,35,22,6,36,1575420032,32.20,316.00,36.00,1,1,0,27.900002
Status,0,35,23,6,5,1575420032,0.00,0.00,0.00,0,1,0,0.0
Status,0,35,24,1,18,1176450048,22.80,314.00,42.00,1,1,1,17.9
Status,0,35,25,1,23,1176450048,18.60,267.00,23.00,0,1,1,13.700001
Status,0,35,26,1,24,1176450048,0.00,166.00,3.00,0,1,1,0.0
Status,0,35,27,1,30,1176450048,0.00,48.00,6.00,0,1,1,0.0
Status,0,35,28,6,4,1176450048,23.70,70.00,70.00,0,1,1,18.400002
Status,0,35,29,6,9,1176450048,18.30,206.00,47.00,0,1,1,12.999999
Status,0,35,30,6,11,1176450048,11.60,45.00,81.00,0,1,0,6.3
Status,0,35,31,6,12,1176450048,18.50,123.00,31.00,0,1,1,13.2
Status,0,35,32,6,5,1176450048,0.00,0.00,0.00,0,1,0,0.0
Status,0,35,33,6,19,1176450048,0.00,42.00,15.00,0,1,0,0.0
Status,0,35,34,6,36,1176450048,0.00,316.00,36.00,0,1,0,0.0
Raw,1646543895413,636010573000000,18,,-1329943102840388060,-0.06312370300292969,24.41844299028162,-10.430848593415334,9.954914805098515,7,2,0.0,16399,19113334540305,13,34.9,467.1016540527344,0.03089195117354393,16,0.0,0.0,1.57542003E9,,,,0,,1,8.08,31.299999999999997,0.0,0.0,,,C,975624407048346
Raw,1646543895413,636010573000000,18,,-1329943102840388060,-0.06312370300292969,24.41844299028162,-10.430848593415334,9.954914805098515,7,5,0.0,16399,19113341865874,27,27.7,369.0460205078125,0.6919999718666077,16,0.0,0.0,1.57542003E9,,,,0,,1,8.08,24.099999999999998,0.0,0.0,,,C,975624407048346
Raw,1646543895413,636010573000000,18,,-1329943102840388060,-0.06312370300292969,24.41844299028162,-10.430848593415334,9.954914805098515,7,13,0.0,16399,19113344761484,12,35.6,92.03265380859375,0.044997572898864746,16,0.0,0.0,1.57542003E9,,,,0,,1,8.08,32.0,0.0,0.0,,,C,975624407048346
Raw,1646543895413,636010573000000,18,,-1329943102840388060,-0.06312370300292969,24.41844299028162,-10.430848593415334,9.954914805098515,7,18,0.0,16399,19113340756771,14,34.0,-477.4668884277344,0.05299565568566322,16,0.0,0.0,1.57542003E9,,,,0,,1,8.08,30.4,0.0,0.0,,,C,975624407048346
Raw,1646543895413,636010573000000,18,,-1329943102840388060,-0.06312370300292969,24.41844299028162,-10.430848593415334,9.954914805098515,7,20,0.0,16399,19113336758520,31,26.8,462.23284912109375,0.7294999957084656,16,0.0,0.0,1.57542003E9,,,,0,,1,8.08,23.2,0.0,0.0,,,C,975624407048346
Raw,1646543895413,636010573000000,18,,-1329943102840388060,-0.06312370300292969,24.41844299028162,-10.430848593415334,9.954914805098515,7,23,0.0,16399,19113335331406,24,28.6,-460.5450134277344,0.667884349822998,16,0.0,0.0,1.57542003E9,,,,0,,1,8.08,25.0,0.0,0.0,,,C,975624407048346
Raw,1646543895413,636010573000000,18,,-1329943102840388060,-0.06312370300292969,24.41844299028162,-10.430848593415334,9.954914805098515,7,29,0.0,16399,19113343013718,13,35.1,296.5487976074219,0.04739195108413696,16,0.0,0.0,1.57542003E9,,,,0,,1,8.08,31.5,0.0,0.0,,,C,975624407048346
Raw,1646543895413,636010573000000,18,,-1329943102840388060,-0.06312370300292969,24.41844299028162,-10.430848593415334,9.954914805098515,7,30,0.0,16399,19113328869014,35,26.2,98.85755920410156,0.7414999604225159,16,0.0,0.0,1.57542003E9,,,,0,,1,8.08,22.599999999999998,0.0,0.0,,,C,975624407048346
Raw,1646543895413,636010573000000,18,,-1329943102840388060,-0.06312370300292969,24.41844299028162,-10.430848593415334,9.954914805098515,7,23,0.0,49359,29895333866853,35,26.5,-784.1455078125,0.7339999675750732,16,0.0,0.0,1.60368755E9,,,,0,,3,5.9,22.5,3848.940673828125,8.137194633483887,,,C,975624407048346
Raw,1646543895413,636010573000000,18,,-1329943102840388060,-0.06312370300292969,24.41844299028162,-10.430848593415334,9.954914805098515,7,21,0.0,49359,29895346500955,21,30.7,418.0975341796875,0.07779868692159653,16,0.0,0.0,1.60424998E9,,,,0,,3,5.9,26.7,3848.940673828125,8.137194633483887,,,C,975624407048346
Raw,1646543895413,636010573000000,18,,-1329943102840388060,-0.06312370300292969,24.41844299028162,-10.430848593415334,9.954914805098515,7,7,0.0,49359,29895348816729,16,33.3,-44.09219741821289,0.045641396194696426,16,0.0,0.0,1.60481254E9,,,,0,,3,5.9,29.299999999999997,3848.940673828125,8.137194633483887,,,C,975624407048346
Raw,1646543895413,636010573000000,18,,-1329943102840388060,-0.06312370300292969,24.41844299028162,-10.430848593415334,9.954914805098515,7,4,0.0,23567,19113333928200,17,33.1,107.74353790283203,0.0694071501493454,16,0.0,0.0,1.57542003E9,,,,0,,6,8.05,28.8,-1463.2169189453125,6.631484031677246,,,C,975624407048346
Raw,1646543895413,636010573000000,18,,-1329943102840388060,-0.06312370300292969,24.41844299028162,-10.430848593415334,9.954914805098515,7,9,0.0,23567,19113336818107,16,33.5,-404.27099609375,0.06630868464708328,16,0.0,0.0,1.57542003E9,,,,0,,6,8.05,29.2,-1463.2169189453125,6.631484031677246,,,C,975624407048346
Raw,1646543895413,636010573000000,18,,-1329943102840388060,-0.06312370300292969,24.41844299028162,-10.430848593415334,9.954914805098515,7,12,0.0,23567,19113332172357,80,20.8,398.0943603515625,1.1755000352859497,16,0.0,0.0,1.57542003E9,,,,0,,6,8.05,16.5,-1463.2169189453125,6.631484031677246,,,C,975624407048346
Raw,1646543895413,636010573000000,18,,-1329943102840388060,-0.06312370300292969,24.41844299028162,-10.430848593415334,9.954914805098515,7,36,0.0,23567,19113328592961,19,32.2,-419.6910705566406,0.07009553164243698,16,0.0,0.0,1.57542003E9,,,,0,,6,8.05,27.900000000000002,-1463.2169189453125,6.631484031677246,,,C,975624407048346
Raw,1646543895413,636010573000000,18,,-1329943102840388060,-0.06312370300292969,24.41844299028162,-10.430848593415334,9.954914805098515,7,18,0.0,81935,19113340764596,14,22.8,-477.6369323730469,1.0115000009536743,16,0.0,0.0,1.17645005E9,,,,0,,1,1.91,17.9,-7874.36572265625,6.8653340339660645,,,Q,975624407048346
Raw,1646543895413,636010573000000,18,,-1329943102840388060,-0.06312370300292969,24.41844299028162,-10.430848593415334,9.954914805098515,7,4,0.0,81935,19113333934578,12,23.7,107.6903305053711,1.6410000324249268,16,0.0,0.0,1.17645005E9,,,,0,,6,1.91,18.4,-7858.39990234375,56.539329528808594,,,Q,975624407048346
Status,0,35,0,1,2,1575420032,34.90,120.00,23.00,1,1,1,31.300001
Status,0,35,1,1,5,1575420032,23.90,49.00,47.00,1,1,1,20.3
Status,0,35,2,1,13,1575420032,36.00,82.00,61.00,1,1,1,32.4
Status,0,35,3,1,15,1575420032,21.10,182.00,69.00,1,1,1,17.5
Status,0,35,4,1,18,1575420032,33.90,314.00,42.00,1,1,1,30.300001
Status,0,35,5,1,20,1575420032,25.80,68.00,25.00,1,1,1,22.199999
Status,0,35,6,1,23,1575420032,28.00,267.00,23.00,1,1,1,24.4
Status,0,35,7,1,24,1575420032,20.80,166.00,3.00,0,1,1,17.199999
Status,0,35,8,1,29,1575420032,34.40,226.00,57.00,1,1,1,30.800001
Status,0,35,9,1,30,1575420032,26.40,48.00,6.00,1,1,1,22.8
Status,0,35,10,2,138,1575420032,33.40,0.00,0.00,0,0,0,29.800001
Status,0,35,11,3,6,1599750016,18.90,29.00,42.00,0,1,0,14.9
Status,0,35,12,3,22,1600312448,18.90,337.00,69.00,1,1,0,14.9
Status,0,35,13,3,23,1603687552,27.10,327.00,7.00,1,1,0,23.1
Status,0,35,14,3,21,1604249984,30.80,141.00,56.00,1,1,1,26.8
Status,0,35,15,3,7,1604812544,33.90,277.00,73.00,1,1,1,29.900002
Status,0,35,16,3,8,1605374976,19.60,231.00,27.00,1,1,1,15.6
Status,0,35,17,6,4,1575420032,33.50,70.00,70.00,1,1,1,29.2
Status,0,35,18,6,9,1575420032,33.90,206.00,47.00,1,1,1,29.600002
Status,0,35,19,6,11,1575420032,19.50,45.00,81.00,1,1,0,15.2
Status,0,35,20,6,12,1575420032,20.80,123.00,31.00,1,1,1,16.5
Status,0,35,21,6,19,1575420032,20.60,42.00,15.00,0,1,0,16.3
Status,0,35,22,6,36,1575420032,32.10,316.00,36.00,1,1,0,27.8
Status,0,35,23,6,5,1575420032,0.00,0.00,0.00,0,1,0,0.0
Status,0,35,24,1,18,1176450048,22.80,314.00,42.00,1,1,1,17.9
Status,0,35,25,1,23,1176450048,18.60,267.00,23.00,0,1,1,13.700001
Status,0,35,26,1,24,1176450048,0.00,166.00,3.00,0,1,1,0.0
Status,0,35,27,1,30,1176450048,0.00,48.00,6.00,0,1,1,0.0
Status,0,35,28,6,4,1176450048,25.30,70.00,70.00,1,1,1,20.0
Status,0,35,29,6,9,1176450048,18.30,206.00,47.00,0,1,1,12.999999
Status,0,35,30,6,11,1176450048,11.60,45.00,81.00,0,1,0,6.3
Status,0,35,31,6,12,1176450048,18.50,123.00,31.00,0,1,1,13.2
Status,0,35,32,6,5,1176450048,0.00,0.00,0.00,0,1,0,0.0
Status,0,35,33,6,19,1176450048,0.00,42.00,15.00,0,1,0,0.0
Status,0,35,34,6,36,1176450048,0.00,316.00,36.00,0,1,0,0.0
Raw,1646543896413,636011573000000,18,,-1329943102840388070,-0.9707736968994141,24.16714414721355,-9.23821195785547,9.823782878254315,7,2,0.0,16399,19114334538710,13,34.9,467.5316162109375,0.03089195117354393,16,0.0,0.0,1.57542003E9,,,,0,,1,8.36,31.299999999999997,0.0,0.0,,,C,975625403370273
Raw,1646543896413,636011573000000,18,,-1329943102840388070,-0.9707736968994141,24.16714414721355,-9.23821195785547,9.823782878254315,7,5,0.0,16399,19114341864683,46,23.9,369.5408020019531,0.9419999718666077,16,0.0,0.0,1.57542003E9,,,,0,,1,8.36,20.299999999999997,0.0,0.0,,,C,975625403370273
Raw,1646543896413,636011573000000,18,,-1329943102840388070,-0.9707736968994141,24.16714414721355,-9.23821195785547,9.823782878254315,7,13,0.0,16399,19114344761204,12,36.0,92.54933166503906,0.044997572898864746,16,0.0,0.0,1.57542003E9,,,,0,,1,8.36,32.4,0.0,0.0,,,C,975625403370273
Raw,1646543896413,636011573000000,18,,-1329943102840388070,-0.9707736968994141,24.16714414721355,-9.23821195785547,9.823782878254315,7,15,0.0,16399,19114346074858,70,21.1,-274.9172668457031,1.7755000591278076,16,0.0,0.0,1.57542003E9,,,,0,,1,8.36,17.5,0.0,0.0,,,C,975625403370273
Raw,1646543896413,636011573000000,18,,-1329943102840388070,-0.9707736968994141,24.16714414721355,-9.23821195785547,9.823782878254315,7,18,0.0,16399,19114340758300,14,33.9,-477.0318603515625,0.05299565568566322,16,0.0,0.0,1.57542003E9,,,,0,,1,8.36,30.299999999999997,0.0,0.0,,,C,975625403370273
Raw,1646543896413,636011573000000,18,,-1329943102840388070,-0.9707736968994141,24.16714414721355,-9.23821195785547,9.823782878254315,7,20,0.0,16399,19114336756961,35,25.8,462.9273986816406,0.7894999980926514,16,0.0,0.0,1.57542003E9,,,,0,,1,8.36,22.2,0.0,0.0,,,C,975625403370273
Raw,1646543896413,636011573000000,18,,-1329943102840388070,-0.9707736968994141,24.16714414721355,-9.23821195785547,9.823782878254315,7,23,0.0,16399,19114335332946,27,28.0,-460.17767333984375,0.6210000514984131,16,0.0,0.0,1.57542003E9,,,,0,,1,8.36,24.4,0.0,0.0,,,C,975625403370273
Raw,1646543896413,636011573000000,18,,-1329943102840388070,-0.9707736968994141,24.16714414721355,-9.23821195785547,9.823782878254315,7,29,0.0,16399,19114343012748,14,34.4,297.0419921875,0.04849565401673317,16,0.0,0.0,1.57542003E9,,,,0,,1,8.36,30.799999999999997,0.0,0.0,,,C,975625403370273
Raw,1646543896413,636011573000000,18,,-1329943102840388070,-0.9707736968994141,24.16714414721355,-9.23821195785547,9.823782878254315,7,30,0.0,16399,19114328868698,35,26.4,99.07640075683594,0.7414999604225159,16,0.0,0.0,1.57542003E9,,,,0,,1,8.36,22.799999999999997,0.0,0.0,,,C,975625403370273
Raw,1646543896413,636011573000000,18,,-1329943102840388070,-0.9707736968994141,24.16714414721355,-9.23821195785547,9.823782878254315,7,23,0.0,49359,29896333869345,31,27.1,-783.7716674804688,0.6739999651908875,16,0.0,0.0,1.60368755E9,,,,0,,3,6.04,23.1,3848.65185546875,8.071775436401367,,,C,975625403370273
Raw,1646543896413,636011573000000,18,,-1329943102840388070,-0.9707736968994141,24.16714414721355,-9.23821195785547,9.823782878254315,7,21,0.0,49359,29896346499564,21,30.8,418.61956787109375,0.07779868692159653,16,0.0,0.0,1.60424998E9,,,,0,,3,6.04,26.8,3848.65185546875,8.071775436401367,,,C,975625403370273
Raw,1646543896413,636011573000000,18,,-1329943102840388070,-0.9707736968994141,24.16714414721355,-9.23821195785547,9.823782878254315,7,7,0.0,49359,29896348816809,16,33.9,-43.579002380371094,0.045641396194696426,16,0.0,0.0,1.60481254E9,,,,0,,3,6.04,29.9,3848.65185546875,8.071775436401367,,,C,975625403370273
Raw,1646543896413,636011573000000,18,,-1329943102840388070,-0.9707736968994141,24.16714414721355,-9.23821195785547,9.823782878254315,7,8,0.0,49359,29896340308744,92,19.6,-584.150634765625,2.696500062942505,16,0.0,0.0,1.60537498E9,,,,0,,3,6.04,15.600000000000001,3848.65185546875,8.071775436401367,,,C,975625403370273
Raw,1646543896413,636011573000000,18,,-1329943102840388070,-0.9707736968994141,24.16714414721355,-9.23821195785547,9.823782878254315,7,4,0.0,23567,19114333927840,16,33.5,108.23439025878906,0.06780868768692017,16,0.0,0.0,1.57542003E9,,,,0,,6,8.28,29.2,-1463.3399658203125,6.620640754699707,,,C,975625403370273
Raw,1646543896413,636011573000000,18,,-1329943102840388070,-0.9707736968994141,24.16714414721355,-9.23821195785547,9.823782878254315,7,9,0.0,23567,19114336819447,16,33.9,-403.7781677246094,0.06630868464708328,16,0.0,0.0,1.57542003E9,,,,0,,6,8.28,29.599999999999998,-1463.3399658203125,6.620640754699707,,,C,975625403370273
Raw,1646543896413,636011573000000,18,,-1329943102840388070,-0.9707736968994141,24.16714414721355,-9.23821195785547,9.823782878254315,7,11,0.0,23567,19114340018808,92,19.5,-24.09117889404297,2.075500011444092,16,0.0,0.0,1.57542003E9,,,,0,,6,8.28,15.2,-1463.3399658203125,6.620640754699707,,,C,975625403370273
Raw,1646543896413,636011573000000,18,,-1329943102840388070,-0.9707736968994141,24.16714414721355,-9.23821195785547,9.823782878254315,7,19,0.0,23567,19114321280564,80,20.6,511.4998474121094,1.8970000743865967,16,0.0,0.0,1.57542003E9,,,,0,,6,8.28,16.3,-1463.3399658203125,6.620640754699707,,,C,975625403370273
Raw,1646543896413,636011573000000,18,,-1329943102840388070,-0.9707736968994141,24.16714414721355,-9.23821195785547,9.823782878254315,7,36,0.0,23567,19114328594360,19,32.1,-419.2431945800781,0.07009553164243698,16,0.0,0.0,1.57542003E9,,,,0,,6,8.28,27.8,-1463.3399658203125,6.620640754699707,,,C,975625403370273
Raw,1646543896413,636011573000000,18,,-1329943102840388070,-0.9707736968994141,24.16714414721355,-9.23821195785547,9.823782878254315,7,4,0.0,81935,19114333934216,10,25.3,108.23192596435547,0.08024752140045166,16,0.0,0.0,1.17645005E9,,,,0,,6,1.92,20.0,-7858.52490234375,56.04065704345703,,,Q,975625403370273
Status,0,35,0,1,2,1575420032,34.90,120.00,23.00,1,1,1,31.300001
Status,0,35,1,1,5,1575420032,24.50,49.00,47.00,1,1,1,20.9
Status,0,35,2,1,13,1575420032,35.90,82.00,61.00,1,1,1,32.300003
Status,0,35,3,1,15,1575420032,21.20,182.00,69.00,1,1,1,17.6
Status,0,35,4,1,18,1575420032,33.80,314.00,42.00,1,1,1,30.199999
Status,0,35,5,1,20,1575420032,25.50,68.00,25.00,1,1,1,21.9
Status,0,35,6,1,23,1575420032,27.60,267.00,23.00,1,1,1,24.0
Status,0,35,7,1,24,1575420032,20.80,166.00,3.00,0,1,1,17.199999
Status,0,35,8,1,29,1575420032,34.70,226.00,57.00,1,1,1,31.1
Status,0,35,9,1,30,1575420032,26.70,48.00,6.00,1,1,1,23.1
Status,0,35,10,2,138,1575420032,32.70,0.00,0.00,0,0,0,29.1
Status,0,35,11,3,6,1599750016,18.90,29.00,42.00,0,1,0,14.9
Status,0,35,12,3,22,1600312448,16.10,337.00,69.00,1,1,0,12.1
Status,0,35,13,3,23,1603687552,26.40,327.00,7.00,1,1,0,22.4
Status,0,35,14,3,21,1604249984,28.90,141.00,56.00,1,1,1,24.9
Status,0,35,15,3,7,1604812544,34.00,277.00,73.00,1,1,1,30.0
Status,0,35,16,3,8,1605374976,23.20,231.00,27.00,1,1,1,19.2
Status,0,35,17,6,4,1575420032,33.30,70.00,70.00,1,1,1,29.0
Status,0,35,18,6,9,1575420032,33.50,206.00,47.00,1,1,1,29.2
Status,0,35,19,6,11,1575420032,19.50,45.00,81.00,1,1,0,15.2
Status,0,35,20,6,12,1575420032,20.10,123.00,31.00,1,1,1,15.8
Status,0,35,21,6,19,1575420032,21.60,42.00,15.00,0,1,0,17.3
Status,0,35,22,6,36,1575420032,32.30,316.00,36.00,1,1,0,28.0
Status,0,35,23,6,5,1575420032,0.00,0.00,0.00,0,1,0,0.0
Status,0,35,24,1,18,1176450048,21.40,314.00,42.00,1,1,1,16.5
Status,0,35,25,1,23,1176450048,18.80,267.00,23.00,0,1,1,13.9
Status,0,35,26,1,24,1176450048,0.00,166.00,3.00,0,1,1,0.0
Status,0,35,27,1,30,1176450048,0.00,48.00,6.00,0,1,1,0.0
Status,0,35,28,6,4,1176450048,24.90,70.00,70.00,1,1,1,19.599998
Status,0,35,29,6,9,1176450048,18.30,206.00,47.00,0,1,1,12.999999
Status,0,35,30,6,11,1176450048,11.60,45.00,81.00,0,1,0,6.3
Status,0,35,31,6,12,1176450048,18.50,123.00,31.00,0,1,1,13.2
Status,0,35,32,6,5,1176450048,0.00,0.00,0.00,0,1,0,0.0
Status,0,35,33,6,19,1176450048,0.00,42.00,15.00,0,1,0,0.0
Status,0,35,34,6,36,1176450048,0.00,316.00,36.00,0,1,0,0.0
Raw,1646543897413,636012573000000,18,,-1329943102840388074,-0.5470523834228516,24.467924959026277,-7.9078640541361995,9.821888524209493,7,2,0.0,16399,19115334537150,13,34.9,467.5690002441406,0.03089195117354393,16,0.0,0.0,1.57542003E9,,,,0,,1,8.32,31.299999999999997,0.0,0.0,,,C,975626400897617
Raw,1646543897413,636012573000000,18,,-1329943102840388074,-0.5470523834228516,24.467924959026277,-7.9078640541361995,9.821888524209493,7,5,0.0,16399,19115341863395,46,24.5,369.50274658203125,0.871999979019165,16,0.0,0.0,1.57542003E9,,,,0,,1,8.32,20.9,0.0,0.0,,,C,975626400897617
Raw,1646543897413,636012573000000,18,,-1329943102840388074,-0.5470523834228516,24.467924959026277,-7.9078640541361995,9.821888524209493,7,13,0.0,16399,19115344760872,12,35.9,92.64349365234375,0.044997572898864746,16,0.0,0.0,1.57542003E9,,,,0,,1,8.32,32.3,0.0,0.0,,,C,975626400897617
Raw,1646543897413,636012573000000,18,,-1329943102840388074,-0.5470523834228516,24.467924959026277,-7.9078640541361995,9.821888524209493,7,15,0.0,16399,19115346075673,70,21.2,-275.6879577636719,1.094499945640564,16,0.0,0.0,1.57542003E9,,,,0,,1,8.32,17.599999999999998,0.0,0.0,,,C,975626400897617
Raw,1646543897413,636012573000000,18,,-1329943102840388074,-0.5470523834228516,24.467924959026277,-7.9078640541361995,9.821888524209493,7,18,0.0,16399,19115340759917,14,33.8,-477.03277587890625,0.05299565568566322,16,0.0,0.0,1.57542003E9,,,,0,,1,8.32,30.199999999999996,0.0,0.0,,,C,975626400897617
Raw,1646543897413,636012573000000,18,,-1329943102840388074,-0.5470523834228516,24.467924959026277,-7.9078640541361995,9.821888524209493,7,20,0.0,16399,19115336755475,40,25.5,462.3089599609375,0.7894999980926514,16,0.0,0.0,1.57542003E9,,,,0,,1,8.32,21.9,0.0,0.0,,,C,975626400897617
Raw,1646543897413,636012573000000,18,,-1329943102840388074,-0.5470523834228516,24.467924959026277,-7.9078640541361995,9.821888524209493,7,23,0.0,16399,19115335334477,27,27.6,-459.7685546875,0.6710000038146973,16,0.0,0.0,1.57542003E9,,,,0,,1,8.32,24.0,0.0,0.0,,,C,975626400897617
Raw,1646543897413,636012573000000,18,,-1329943102840388074,-0.5470523834228516,24.467924959026277,-7.9078640541361995,9.821888524209493,7,29,0.0,16399,19115343011746,13,34.7,297.1208190917969,0.04739195108413696,16,0.0,0.0,1.57542003E9,,,,0,,1,8.32,31.1,0.0,0.0,,,C,975626400897617
Raw,1646543897413,636012573000000,18,,-1329943102840388074,-0.5470523834228516,24.467924959026277,-7.9078640541361995,9.821888524209493,7,30,0.0,16399,19115328868445,31,26.7,99.12397766113281,0.7414999604225159,16,0.0,0.0,1.57542003E9,,,,0,,1,8.32,23.099999999999998,0.0,0.0,,,C,975626400897617
Raw,1646543897413,636012573000000,18,,-1329943102840388074,-0.5470523834228516,24.467924959026277,-7.9078640541361995,9.821888524209493,7,22,0.0,49359,29897348332271,139,16.1,-279.0242004394531,5.298500061035156,16,0.0,0.0,1.60031245E9,,,,0,,3,6.03,12.100000000000001,3848.868896484375,8.014593124389648,,,C,975626400897617
Raw,1646543897413,636012573000000,18,,-1329943102840388074,-0.5470523834228516,24.467924959026277,-7.9078640541361995,9.821888524209493,7,23,0.0,49359,29897333872031,35,26.4,-783.74365234375,0.7339999675750732,16,0.0,0.0,1.60368755E9,,,,0,,3,6.03,22.4,3848.868896484375,8.014593124389648,,,C,975626400897617
Raw,1646543897413,636012573000000,18,,-1329943102840388074,-0.5470523834228516,24.467924959026277,-7.9078640541361995,9.821888524209493,7,21,0.0,49359,29897346498149,27,28.9,418.6816101074219,0.6345000267028809,16,0.0,0.0,1.60424998E9,,,,0,,3,6.03,24.9,3848.868896484375,8.014593124389648,,,C,975626400897617
Raw,1646543897413,636012573000000,18,,-1329943102840388074,-0.5470523834228516,24.467924959026277,-7.9078640541361995,9.821888524209493,7,7,0.0,49359,29897348817002,14,34.0,-43.485206604003906,0.04082173854112625,16,0.0,0.0,1.60481254E9,,,,0,,3,6.03,30.0,3848.868896484375,8.014593124389648,,,C,975626400897617
Raw,1646543897413,636012573000000,18,,-1329943102840388074,-0.5470523834228516,24.467924959026277,-7.9078640541361995,9.821888524209493,7,8,0.0,49359,29897340310678,53,23.2,-581.5828857421875,0.9434999823570251,16,0.0,0.0,1.60537498E9,,,,0,,3,6.03,19.2,3848.868896484375,8.014593124389648,,,C,975626400897617
Raw,1646543897413,636012573000000,18,,-1329943102840388074,-0.5470523834228516,24.467924959026277,-7.9078640541361995,9.821888524209493,7,4,0.0,23567,19115333927476,16,33.3,108.30705261230469,0.06780868768692017,16,0.0,0.0,1.57542003E9,,,,0,,6,8.24,28.999999999999996,-1463.45361328125,6.612390995025635,,,C,975626400897617
